[
    {
        "speciesCode": "pinsis",
        "comName": "Pine Siskin",
        "sciName": "Spinus pinus",
        "locId": "L31478791",
        "locName": "141 York Rd, Guelph CA-ON 43.54309, -80.23544",
        "obsDt": "2024-05-09 13:37",
        "howMany": 1,
        "lat": 43.543089,
        "lng": -80.235436,
        "obsValid": true,
        "obsReviewed": false,
        "locationPrivate": true,
        "subId": "S173045851"
    },
    {
        "speciesCode": "grycat",
        "comName": "Gray Catbird",
        "sciName": "Dumetella carolinensis",
        "locId": "L14894683",
        "locName": "I Line Road",
        "obsDt": "2024-05-09 13:37",
        "howMany": 1,
        "lat": 46.2690964,
        "lng": -83.9437671,
        "obsValid": true,
        "obsReviewed": false,
        "locationPrivate": true,
        "subId": "S173044394"
    },
    {
        "speciesCode": "chiswi",
        "comName": "Chimney Swift",
        "sciName": "Chaetura pelagica",
        "locId": "L31478791",
        "locName": "141 York Rd, Guelph CA-ON 43.54309, -80.23544",
        "obsDt": "2024-05-09 13:37",
        "howMany": 1,
        "lat": 43.543089,
        "lng": -80.235436,
        "obsValid": true,
        "obsReviewed": false,
        "locationPrivate": true,
        "subId": "S173045851"
    },
    {
        "speciesCode": "comter",
        "comName": "Common Tern",
        "sciName": "Sterna hirundo",
        "locId": "L31226827",
        "locName": "Our Pelee Cottage 2024",
        "obsDt": "2024-05-09 13:36",
        "howMany": 4,
        "lat": 42.009012,
        "lng": -82.571629,
        "obsValid": true,
        "obsReviewed": false,
        "locationPrivate": true,
        "subId": "S173047445"
    },
    {
        "speciesCode": "banswa",
        "comName": "Bank Swallow",
        "sciName": "Riparia riparia",
        "locId": "L31226827",
        "locName": "Our Pelee Cottage 2024",
        "obsDt": "2024-05-09 13:36",
        "howMany": 4,
        "lat": 42.009012,
        "lng": -82.571629,
        "obsValid": true,
        "obsReviewed": false,
        "locationPrivate": true,
        "subId": "S173047445"
    },
    {
        "speciesCode": "forter",
        "comName": "Forster's Tern",
        "sciName": "Sterna forsteri",
        "locId": "L31226827",
        "locName": "Our Pelee Cottage 2024",
        "obsDt": "2024-05-09 13:36",
        "howMany": 1,
        "lat": 42.009012,
        "lng": -82.571629,
        "obsValid": true,
        "obsReviewed": false,
        "locationPrivate": true,
        "subId": "S173047445"
    },
    {
        "speciesCode": "sancra",
        "comName": "Sandhill Crane",
        "sciName": "Antigone canadensis",
        "locId": "L1128597",
        "locName": "Ch. des Puits, Laterrière",
        "obsDt": "2024-05-09 13:35",
        "howMany": 1,
        "lat": 48.3375526,
        "lng": -71.1406803,
        "obsValid": true,
        "obsReviewed": false,
        "locationPrivate": true,
        "subId": "S173044558"
    },
    {
        "speciesCode": "bnhcow",
        "comName": "Brown-headed Cowbird",
        "sciName": "Molothrus ater",
        "locId": "L9115528",
        "locName": "Parc naturel des Trente-Arpents",
        "obsDt": "2024-05-09 13:35",
        "howMany": 1,
        "lat": 45.5624063,
        "lng": -73.2049876,
        "obsValid": true,
        "obsReviewed": false,
        "locationPrivate": false,
        "subId": "S173043812"
    },
    {
        "speciesCode": "warvir",
        "comName": "Warbling Vireo",
        "sciName": "Vireo gilvus",
        "locId": "L11140040",
        "locName": "409 Boulevard D'Youville, Châteauguay, Québec, CA (45,382, -73,757)",
        "obsDt": "2024-05-09 13:33",
        "howMany": 2,
        "lat": 45.3815598,
        "lng": -73.7571058,
        "obsValid": true,
        "obsReviewed": false,
        "locationPrivate": true,
        "subId": "S173043841"
    },
    {
        "speciesCode": "rthhum",
        "comName": "Ruby-throated Hummingbird",
        "sciName": "Archilochus colubris",
        "locId": "L5575819",
        "locName": "Saint-Basile - Feeders at home",
        "obsDt": "2024-05-09 13:32",
        "howMany": 1,
        "lat": 47.3671797,
        "lng": -68.219347,
        "obsValid": true,
        "obsReviewed": false,
        "locationPrivate": true,
        "subId": "S173030039"
    },
    {
        "speciesCode": "osprey",
        "comName": "Osprey",
        "sciName": "Pandion haliaetus",
        "locId": "L31478332",
        "locName": "Av du Pont N, Alma CA-QC (48.5756,-71.6310)",
        "obsDt": "2024-05-09 13:32",
        "howMany": 2,
        "lat": 48.575566,
        "lng": -71.630979,
        "obsValid": true,
        "obsReviewed": false,
        "locationPrivate": true,
        "subId": "S173043604"
    },
    {
        "speciesCode": "belkin1",
        "comName": "Belted Kingfisher",
        "sciName": "Megaceryle alcyon",
        "locId": "L1560005",
        "locName": "Lindsay Sewage Lagoons",
        "obsDt": "2024-05-09 13:31",
        "howMany": 1,
        "lat": 44.3857366,
        "lng": -78.7426769,
        "obsValid": true,
        "obsReviewed": false,
        "locationPrivate": false,
        "subId": "S173046953"
    },
    {
        "speciesCode": "rinduc",
        "comName": "Ring-necked Duck",
        "sciName": "Aythya collaris",
        "locId": "L1560005",
        "locName": "Lindsay Sewage Lagoons",
        "obsDt": "2024-05-09 13:31",
        "howMany": 20,
        "lat": 44.3857366,
        "lng": -78.7426769,
        "obsValid": true,
        "obsReviewed": false,
        "locationPrivate": false,
        "subId": "S173046953"
    },
    {
        "speciesCode": "lessca",
        "comName": "Lesser Scaup",
        "sciName": "Aythya affinis",
        "locId": "L1560005",
        "locName": "Lindsay Sewage Lagoons",
        "obsDt": "2024-05-09 13:31",
        "howMany": 15,
        "lat": 44.3857366,
        "lng": -78.7426769,
        "obsValid": true,
        "obsReviewed": false,
        "locationPrivate": false,
        "subId": "S173046953"
    },
    {
        "speciesCode": "gnwtea",
        "comName": "Green-winged Teal",
        "sciName": "Anas crecca",
        "locId": "L1560005",
        "locName": "Lindsay Sewage Lagoons",
        "obsDt": "2024-05-09 13:31",
        "howMany": 1,
        "lat": 44.3857366,
        "lng": -78.7426769,
        "obsValid": true,
        "obsReviewed": false,
        "locationPrivate": false,
        "subId": "S173046953"
    },
    {
        "speciesCode": "buwtea",
        "comName": "Blue-winged Teal",
        "sciName": "Spatula discors",
        "locId": "L1560005",
        "locName": "Lindsay Sewage Lagoons",
        "obsDt": "2024-05-09 13:31",
        "howMany": 2,
        "lat": 44.3857366,
        "lng": -78.7426769,
        "obsValid": true,
        "obsReviewed": false,
        "locationPrivate": false,
        "subId": "S173046953"
    },
    {
        "speciesCode": "buffle",
        "comName": "Bufflehead",
        "sciName": "Bucephala albeola",
        "locId": "L1560005",
        "locName": "Lindsay Sewage Lagoons",
        "obsDt": "2024-05-09 13:31",
        "howMany": 5,
        "lat": 44.3857366,
        "lng": -78.7426769,
        "obsValid": true,
        "obsReviewed": false,
        "locationPrivate": false,
        "subId": "S173046953"
    },
    {
        "speciesCode": "norhar2",
        "comName": "Northern Harrier",
        "sciName": "Circus hudsonius",
        "locId": "L1560005",
        "locName": "Lindsay Sewage Lagoons",
        "obsDt": "2024-05-09 13:31",
        "howMany": 1,
        "lat": 44.3857366,
        "lng": -78.7426769,
        "obsValid": true,
        "obsReviewed": false,
        "locationPrivate": false,
        "subId": "S173046953"
    },
    {
        "speciesCode": "norsho",
        "comName": "Northern Shoveler",
        "sciName": "Spatula clypeata",
        "locId": "L1560005",
        "locName": "Lindsay Sewage Lagoons",
        "obsDt": "2024-05-09 13:31",
        "howMany": 2,
        "lat": 44.3857366,
        "lng": -78.7426769,
        "obsValid": true,
        "obsReviewed": false,
        "locationPrivate": false,
        "subId": "S173046953"
    },
    {
        "speciesCode": "sposan",
        "comName": "Spotted Sandpiper",
        "sciName": "Actitis macularius",
        "locId": "L1560005",
        "locName": "Lindsay Sewage Lagoons",
        "obsDt": "2024-05-09 13:31",
        "howMany": 4,
        "lat": 44.3857366,
        "lng": -78.7426769,
        "obsValid": true,
        "obsReviewed": false,
        "locationPrivate": false,
        "subId": "S173046953"
    },
    {
        "speciesCode": "killde",
        "comName": "Killdeer",
        "sciName": "Charadrius vociferus",
        "locId": "L14806996",
        "locName": "Assumption Rd meltwater ponds",
        "obsDt": "2024-05-09 13:30",
        "howMany": 3,
        "lat": 44.2669804,
        "lng": -78.2809169,
        "obsValid": true,
        "obsReviewed": false,
        "locationPrivate": false,
        "subId": "S173048209"
    },
    {
        "speciesCode": "leasan",
        "comName": "Least Sandpiper",
        "sciName": "Calidris minutilla",
        "locId": "L14806996",
        "locName": "Assumption Rd meltwater ponds",
        "obsDt": "2024-05-09 13:30",
        "howMany": 4,
        "lat": 44.2669804,
        "lng": -78.2809169,
        "obsValid": true,
        "obsReviewed": false,
        "locationPrivate": false,
        "subId": "S173048209"
    },
    {
        "speciesCode": "grbher3",
        "comName": "Great Blue Heron",
        "sciName": "Ardea herodias",
        "locId": "L14806996",
        "locName": "Assumption Rd meltwater ponds",
        "obsDt": "2024-05-09 13:30",
        "howMany": 1,
        "lat": 44.2669804,
        "lng": -78.2809169,
        "obsValid": true,
        "obsReviewed": false,
        "locationPrivate": false,
        "subId": "S173048209"
    },
    {
        "speciesCode": "lesyel",
        "comName": "Lesser Yellowlegs",
        "sciName": "Tringa flavipes",
        "locId": "L14806996",
        "locName": "Assumption Rd meltwater ponds",
        "obsDt": "2024-05-09 13:30",
        "howMany": 2,
        "lat": 44.2669804,
        "lng": -78.2809169,
        "obsValid": true,
        "obsReviewed": false,
        "locationPrivate": false,
        "subId": "S173048209"
    },
    {
        "speciesCode": "ruckin",
        "comName": "Ruby-crowned Kinglet",
        "sciName": "Corthylio calendula",
        "locId": "L14806996",
        "locName": "Assumption Rd meltwater ponds",
        "obsDt": "2024-05-09 13:30",
        "howMany": 1,
        "lat": 44.2669804,
        "lng": -78.2809169,
        "obsValid": true,
        "obsReviewed": false,
        "locationPrivate": false,
        "subId": "S173048209"
    },
    {
        "speciesCode": "herthr",
        "comName": "Hermit Thrush",
        "sciName": "Catharus guttatus",
        "locId": "L14806996",
        "locName": "Assumption Rd meltwater ponds",
        "obsDt": "2024-05-09 13:30",
        "howMany": 1,
        "lat": 44.2669804,
        "lng": -78.2809169,
        "obsValid": true,
        "obsReviewed": false,
        "locationPrivate": false,
        "subId": "S173048209"
    },
    {
        "speciesCode": "easmea",
        "comName": "Eastern Meadowlark",
        "sciName": "Sturnella magna",
        "locId": "L2183036",
        "locName": "Prince Edward County--Babylon Road",
        "obsDt": "2024-05-09 13:29",
        "howMany": 1,
        "lat": 43.9245761,
        "lng": -76.9749355,
        "obsValid": true,
        "obsReviewed": false,
        "locationPrivate": false,
        "subId": "S173046286"
    },
    {
        "speciesCode": "eastow",
        "comName": "Eastern Towhee",
        "sciName": "Pipilo erythrophthalmus",
        "locId": "L2183036",
        "locName": "Prince Edward County--Babylon Road",
        "obsDt": "2024-05-09 13:29",
        "howMany": 3,
        "lat": 43.9245761,
        "lng": -76.9749355,
        "obsValid": true,
        "obsReviewed": false,
        "locationPrivate": false,
        "subId": "S173046286"
    },
    {
        "speciesCode": "fiespa",
        "comName": "Field Sparrow",
        "sciName": "Spizella pusilla",
        "locId": "L2183036",
        "locName": "Prince Edward County--Babylon Road",
        "obsDt": "2024-05-09 13:29",
        "howMany": 1,
        "lat": 43.9245761,
        "lng": -76.9749355,
        "obsValid": true,
        "obsReviewed": false,
        "locationPrivate": false,
        "subId": "S173046286"
    },
    {
        "speciesCode": "comyel",
        "comName": "Common Yellowthroat",
        "sciName": "Geothlypis trichas",
        "locId": "L2183036",
        "locName": "Prince Edward County--Babylon Road",
        "obsDt": "2024-05-09 13:29",
        "howMany": 1,
        "lat": 43.9245761,
        "lng": -76.9749355,
        "obsValid": true,
        "obsReviewed": false,
        "locationPrivate": false,
        "subId": "S173046286"
    },
    {
        "speciesCode": "boboli",
        "comName": "Bobolink",
        "sciName": "Dolichonyx oryzivorus",
        "locId": "L31478637",
        "locName": "2120-1946 Assumption Road, Peterborough, Ontario, CA (44.262, -78.293)",
        "obsDt": "2024-05-09 13:23",
        "howMany": 1,
        "lat": 44.2621349,
        "lng": -78.2926272,
        "obsValid": true,
        "obsReviewed": false,
        "locationPrivate": true,
        "subId": "S173045086"
    },
    {
        "speciesCode": "amered",
        "comName": "American Redstart",
        "sciName": "Setophaga ruticilla",
        "locId": "L31478637",
        "locName": "2120-1946 Assumption Road, Peterborough, Ontario, CA (44.262, -78.293)",
        "obsDt": "2024-05-09 13:23",
        "howMany": 1,
        "lat": 44.2621349,
        "lng": -78.2926272,
        "obsValid": true,
        "obsReviewed": false,
        "locationPrivate": true,
        "subId": "S173045086"
    },
    {
        "speciesCode": "solsan",
        "comName": "Solitary Sandpiper",
        "sciName": "Tringa solitaria",
        "locId": "L31478637",
        "locName": "2120-1946 Assumption Road, Peterborough, Ontario, CA (44.262, -78.293)",
        "obsDt": "2024-05-09 13:23",
        "howMany": 1,
        "lat": 44.2621349,
        "lng": -78.2926272,
        "obsValid": true,
        "obsReviewed": false,
        "locationPrivate": true,
        "subId": "S173045086"
    },
    {
        "speciesCode": "sora",
        "comName": "Sora",
        "sciName": "Porzana carolina",
        "locId": "L31478637",
        "locName": "2120-1946 Assumption Road, Peterborough, Ontario, CA (44.262, -78.293)",
        "obsDt": "2024-05-09 13:23",
        "howMany": 1,
        "lat": 44.2621349,
        "lng": -78.2926272,
        "obsValid": true,
        "obsReviewed": false,
        "locationPrivate": true,
        "subId": "S173045086"
    },
    {
        "speciesCode": "dunlin",
        "comName": "Dunlin",
        "sciName": "Calidris alpina",
        "locId": "L2817016",
        "locName": "Mersea Rd 21 fields",
        "obsDt": "2024-05-09 13:20",
        "howMany": 40,
        "lat": 42.0488226,
        "lng": -82.4884629,
        "obsValid": true,
        "obsReviewed": false,
        "locationPrivate": false,
        "subId": "S173040659"
    },
    {
        "speciesCode": "semplo",
        "comName": "Semipalmated Plover",
        "sciName": "Charadrius semipalmatus",
        "locId": "L2817016",
        "locName": "Mersea Rd 21 fields",
        "obsDt": "2024-05-09 13:20",
        "howMany": 8,
        "lat": 42.0488226,
        "lng": -82.4884629,
        "obsValid": true,
        "obsReviewed": false,
        "locationPrivate": false,
        "subId": "S173040659"
    },
    {
        "speciesCode": "mutswa",
        "comName": "Mute Swan",
        "sciName": "Cygnus olor",
        "locId": "L386301",
        "locName": "Ajax--Rotary Park",
        "obsDt": "2024-05-09 13:15",
        "howMany": 5,
        "lat": 43.8175601,
        "lng": -79.0322972,
        "obsValid": true,
        "obsReviewed": false,
        "locationPrivate": false,
        "subId": "S173048454",
        "exoticCategory": "N"
    },
    {
        "speciesCode": "brdowl",
        "comName": "Barred Owl",
        "sciName": "Strix varia",
        "locId": "L2225189",
        "locName": "ThBayMaplewardDawson",
        "obsDt": "2024-05-09 13:15",
        "howMany": 1,
        "lat": 48.50601,
        "lng": -89.37594,
        "obsValid": true,
        "obsReviewed": false,
        "locationPrivate": true,
        "subId": "S173042856"
    },
    {
        "speciesCode": "bongul",
        "comName": "Bonaparte's Gull",
        "sciName": "Chroicocephalus philadelphia",
        "locId": "L386301",
        "locName": "Ajax--Rotary Park",
        "obsDt": "2024-05-09 13:15",
        "howMany": 8,
        "lat": 43.8175601,
        "lng": -79.0322972,
        "obsValid": true,
        "obsReviewed": false,
        "locationPrivate": false,
        "subId": "S173048454"
    },
    {
        "speciesCode": "naswar",
        "comName": "Nashville Warbler",
        "sciName": "Leiothlypis ruficapilla",
        "locId": "L386301",
        "locName": "Ajax--Rotary Park",
        "obsDt": "2024-05-09 13:15",
        "howMany": 1,
        "lat": 43.8175601,
        "lng": -79.0322972,
        "obsValid": true,
        "obsReviewed": false,
        "locationPrivate": false,
        "subId": "S173048454"
    },
    {
        "speciesCode": "retloo",
        "comName": "Red-throated Loon",
        "sciName": "Gavia stellata",
        "locId": "L13273949",
        "locName": "Parc de la Paix (cté La Haute-Gaspésie)",
        "obsDt": "2024-05-09 13:14",
        "howMany": 1,
        "lat": 49.2268071,
        "lng": -65.9205498,
        "obsValid": true,
        "obsReviewed": false,
        "locationPrivate": false,
        "subId": "S173045795"
    },
    {
        "speciesCode": "lotduc",
        "comName": "Long-tailed Duck",
        "sciName": "Clangula hyemalis",
        "locId": "L13273949",
        "locName": "Parc de la Paix (cté La Haute-Gaspésie)",
        "obsDt": "2024-05-09 13:14",
        "howMany": 50,
        "lat": 49.2268071,
        "lng": -65.9205498,
        "obsValid": true,
        "obsReviewed": false,
        "locationPrivate": false,
        "subId": "S173045795"
    },
    {
        "speciesCode": "norgan",
        "comName": "Northern Gannet",
        "sciName": "Morus bassanus",
        "locId": "L13273949",
        "locName": "Parc de la Paix (cté La Haute-Gaspésie)",
        "obsDt": "2024-05-09 13:14",
        "howMany": 3,
        "lat": 49.2268071,
        "lng": -65.9205498,
        "obsValid": true,
        "obsReviewed": false,
        "locationPrivate": false,
        "subId": "S173045795"
    },
    {
        "speciesCode": "sursco",
        "comName": "Surf Scoter",
        "sciName": "Melanitta perspicillata",
        "locId": "L13273949",
        "locName": "Parc de la Paix (cté La Haute-Gaspésie)",
        "obsDt": "2024-05-09 13:14",
        "howMany": 10,
        "lat": 49.2268071,
        "lng": -65.9205498,
        "obsValid": true,
        "obsReviewed": false,
        "locationPrivate": false,
        "subId": "S173045795"
    },
    {
        "speciesCode": "amewig",
        "comName": "American Wigeon",
        "sciName": "Mareca americana",
        "locId": "L2996147",
        "locName": "Hillman Marsh CA--shorebird cell",
        "obsDt": "2024-05-09 13:12",
        "howMany": 16,
        "lat": 42.0365264,
        "lng": -82.5107833,
        "obsValid": true,
        "obsReviewed": false,
        "locationPrivate": false,
        "subId": "S173042803"
    },
    {
        "speciesCode": "semsan",
        "comName": "Semipalmated Sandpiper",
        "sciName": "Calidris pusilla",
        "locId": "L2996147",
        "locName": "Hillman Marsh CA--shorebird cell",
        "obsDt": "2024-05-09 13:12",
        "howMany": 1,
        "lat": 42.0365264,
        "lng": -82.5107833,
        "obsValid": true,
        "obsReviewed": false,
        "locationPrivate": false,
        "subId": "S173042803"
    },
    {
        "speciesCode": "gadwal",
        "comName": "Gadwall",
        "sciName": "Mareca strepera",
        "locId": "L2996147",
        "locName": "Hillman Marsh CA--shorebird cell",
        "obsDt": "2024-05-09 13:12",
        "howMany": 4,
        "lat": 42.0365264,
        "lng": -82.5107833,
        "obsValid": true,
        "obsReviewed": false,
        "locationPrivate": false,
        "subId": "S173042803"
    },
    {
        "speciesCode": "cedwax",
        "comName": "Cedar Waxwing",
        "sciName": "Bombycilla cedrorum",
        "locId": "L2996147",
        "locName": "Hillman Marsh CA--shorebird cell",
        "obsDt": "2024-05-09 13:12",
        "howMany": 10,
        "lat": 42.0365264,
        "lng": -82.5107833,
        "obsValid": true,
        "obsReviewed": false,
        "locationPrivate": false,
        "subId": "S173042803"
    },
    {
        "speciesCode": "caster1",
        "comName": "Caspian Tern",
        "sciName": "Hydroprogne caspia",
        "locId": "L2996147",
        "locName": "Hillman Marsh CA--shorebird cell",
        "obsDt": "2024-05-09 13:12",
        "howMany": 3,
        "lat": 42.0365264,
        "lng": -82.5107833,
        "obsValid": true,
        "obsReviewed": false,
        "locationPrivate": false,
        "subId": "S173042803"
    },
    {
        "speciesCode": "blkter",
        "comName": "Black Tern",
        "sciName": "Chlidonias niger",
        "locId": "L3502345",
        "locName": "Mersea Rd 2 east bridge",
        "obsDt": "2024-05-09 13:11",
        "howMany": 1,
        "lat": 42.0428047,
        "lng": -82.4999347,
        "obsValid": true,
        "obsReviewed": false,
        "locationPrivate": false,
        "subId": "S173041936"
    },
    {
        "speciesCode": "borchi2",
        "comName": "Boreal Chickadee",
        "sciName": "Poecile hudsonicus",
        "locId": "L22515649",
        "locName": "HVGB-Otter Creek Water Aerodrome",
        "obsDt": "2024-05-09 13:10",
        "howMany": 1,
        "lat": 53.353736,
        "lng": -60.4133321,
        "obsValid": true,
        "obsReviewed": false,
        "locationPrivate": true,
        "subId": "S173034781"
    },
    {
        "speciesCode": "foxspa",
        "comName": "Fox Sparrow",
        "sciName": "Passerella iliaca",
        "locId": "L22515649",
        "locName": "HVGB-Otter Creek Water Aerodrome",
        "obsDt": "2024-05-09 13:10",
        "howMany": 1,
        "lat": 53.353736,
        "lng": -60.4133321,
        "obsValid": true,
        "obsReviewed": false,
        "locationPrivate": true,
        "subId": "S173034781"
    },
    {
        "speciesCode": "bkbwar",
        "comName": "Blackburnian Warbler",
        "sciName": "Setophaga fusca",
        "locId": "L14670001",
        "locName": "Skylark Road",
        "obsDt": "2024-05-09 13:09",
        "howMany": 1,
        "lat": 43.6626011,
        "lng": -79.4968514,
        "obsValid": true,
        "obsReviewed": false,
        "locationPrivate": true,
        "subId": "S173038049"
    },
    {
        "speciesCode": "norwat",
        "comName": "Northern Waterthrush",
        "sciName": "Parkesia noveboracensis",
        "locId": "L1559498",
        "locName": "London--Western University campus",
        "obsDt": "2024-05-09 13:06",
        "howMany": 1,
        "lat": 43.0086578,
        "lng": -81.2722846,
        "obsValid": true,
        "obsReviewed": false,
        "locationPrivate": false,
        "subId": "S173042320"
    },
    {
        "speciesCode": "dowwoo",
        "comName": "Downy Woodpecker",
        "sciName": "Dryobates pubescens",
        "locId": "L1559498",
        "locName": "London--Western University campus",
        "obsDt": "2024-05-09 13:06",
        "howMany": 1,
        "lat": 43.0086578,
        "lng": -81.2722846,
        "obsValid": true,
        "obsReviewed": false,
        "locationPrivate": false,
        "subId": "S173042320"
    },
    {
        "speciesCode": "carwre",
        "comName": "Carolina Wren",
        "sciName": "Thryothorus ludovicianus",
        "locId": "L1559498",
        "locName": "London--Western University campus",
        "obsDt": "2024-05-09 13:06",
        "howMany": 1,
        "lat": 43.0086578,
        "lng": -81.2722846,
        "obsValid": true,
        "obsReviewed": false,
        "locationPrivate": false,
        "subId": "S173042320"
    },
    {
        "speciesCode": "whbnut",
        "comName": "White-breasted Nuthatch",
        "sciName": "Sitta carolinensis",
        "locId": "L2147196",
        "locName": "Kitchener--Walter Bean Trail",
        "obsDt": "2024-05-09 13:05",
        "howMany": 2,
        "lat": 43.4891597,
        "lng": -80.4735844,
        "obsValid": true,
        "obsReviewed": false,
        "locationPrivate": false,
        "subId": "S173048460"
    },
    {
        "speciesCode": "rebwoo",
        "comName": "Red-bellied Woodpecker",
        "sciName": "Melanerpes carolinus",
        "locId": "L2147196",
        "locName": "Kitchener--Walter Bean Trail",
        "obsDt": "2024-05-09 13:05",
        "howMany": 1,
        "lat": 43.4891597,
        "lng": -80.4735844,
        "obsValid": true,
        "obsReviewed": false,
        "locationPrivate": false,
        "subId": "S173048460"
    },
    {
        "speciesCode": "norpar",
        "comName": "Northern Parula",
        "sciName": "Setophaga americana",
        "locId": "L2147196",
        "locName": "Kitchener--Walter Bean Trail",
        "obsDt": "2024-05-09 13:05",
        "howMany": 1,
        "lat": 43.4891597,
        "lng": -80.4735844,
        "obsValid": true,
        "obsReviewed": false,
        "locationPrivate": false,
        "subId": "S173048460"
    },
    {
        "speciesCode": "camwar",
        "comName": "Cape May Warbler",
        "sciName": "Setophaga tigrina",
        "locId": "L31478027",
        "locName": "140 Ch du Lac-Chip, La Pêche CA-QC 45.65443, -75.82780",
        "obsDt": "2024-05-09 13:05",
        "howMany": 1,
        "lat": 45.654429,
        "lng": -75.827802,
        "obsValid": true,
        "obsReviewed": false,
        "locationPrivate": true,
        "subId": "S173042142"
    },
    {
        "speciesCode": "swaspa",
        "comName": "Swamp Sparrow",
        "sciName": "Melospiza georgiana",
        "locId": "L2147196",
        "locName": "Kitchener--Walter Bean Trail",
        "obsDt": "2024-05-09 13:05",
        "howMany": 2,
        "lat": 43.4891597,
        "lng": -80.4735844,
        "obsValid": true,
        "obsReviewed": false,
        "locationPrivate": false,
        "subId": "S173048460"
    },
    {
        "speciesCode": "greegr",
        "comName": "Great Egret",
        "sciName": "Ardea alba",
        "locId": "L16059462",
        "locName": "1140 Terry Fox Drive, Ottawa, Ontario, CA (45.277, -75.876)",
        "obsDt": "2024-05-09 13:04",
        "howMany": 2,
        "lat": 45.2765889,
        "lng": -75.875985,
        "obsValid": true,
        "obsReviewed": false,
        "locationPrivate": true,
        "subId": "S173036986"
    },
    {
        "speciesCode": "cliswa",
        "comName": "Cliff Swallow",
        "sciName": "Petrochelidon pyrrhonota",
        "locId": "L282214",
        "locName": "Wheatley--Harbour (Chatham-Kent side)",
        "obsDt": "2024-05-09 13:03",
        "howMany": 1,
        "lat": 42.062357,
        "lng": -82.4625206,
        "obsValid": true,
        "obsReviewed": false,
        "locationPrivate": false,
        "subId": "S173037544"
    },
    {
        "speciesCode": "rudduc",
        "comName": "Ruddy Duck",
        "sciName": "Oxyura jamaicensis",
        "locId": "L3640984",
        "locName": "Zion Road south of Hwy 3",
        "obsDt": "2024-05-09 13:03",
        "howMany": 2,
        "lat": 42.1158928,
        "lng": -82.412374,
        "obsValid": true,
        "obsReviewed": false,
        "locationPrivate": false,
        "subId": "S173038635"
    },
    {
        "speciesCode": "buggna",
        "comName": "Blue-gray Gnatcatcher",
        "sciName": "Polioptila caerulea",
        "locId": "L209480",
        "locName": "Long Point--'New' Provincial Park",
        "obsDt": "2024-05-09 13:01",
        "howMany": 1,
        "lat": 42.5806413,
        "lng": -80.3857613,
        "obsValid": true,
        "obsReviewed": false,
        "locationPrivate": false,
        "subId": "S173048652"
    },
    {
        "speciesCode": "btnwar",
        "comName": "Black-throated Green Warbler",
        "sciName": "Setophaga virens",
        "locId": "L21394690",
        "locName": "Piste cyc. Hemmingford--Centre récréatif<-->Ch. Williams",
        "obsDt": "2024-05-09 13:00",
        "howMany": 1,
        "lat": 45.057648,
        "lng": -73.577786,
        "obsValid": true,
        "obsReviewed": false,
        "locationPrivate": false,
        "subId": "S173036811"
    },
    {
        "speciesCode": "babwar",
        "comName": "Bay-breasted Warbler",
        "sciName": "Setophaga castanea",
        "locId": "L1620006",
        "locName": "Wychwood Park",
        "obsDt": "2024-05-09 13:00",
        "howMany": 1,
        "lat": 43.678044,
        "lng": -79.419724,
        "obsValid": true,
        "obsReviewed": false,
        "locationPrivate": false,
        "subId": "S173039633"
    },
    {
        "speciesCode": "brwhaw",
        "comName": "Broad-winged Hawk",
        "sciName": "Buteo platypterus",
        "locId": "L21394690",
        "locName": "Piste cyc. Hemmingford--Centre récréatif<-->Ch. Williams",
        "obsDt": "2024-05-09 13:00",
        "howMany": 1,
        "lat": 45.057648,
        "lng": -73.577786,
        "obsValid": true,
        "obsReviewed": false,
        "locationPrivate": false,
        "subId": "S173036811"
    },
    {
        "speciesCode": "rethaw",
        "comName": "Red-tailed Hawk",
        "sciName": "Buteo jamaicensis",
        "locId": "L31477021",
        "locName": "Outside of Hart house",
        "obsDt": "2024-05-09 13:00",
        "howMany": 1,
        "lat": 43.663109,
        "lng": -79.394994,
        "obsValid": true,
        "obsReviewed": false,
        "locationPrivate": true,
        "subId": "S173037216"
    },
    {
        "speciesCode": "gresca",
        "comName": "Greater Scaup",
        "sciName": "Aythya marila",
        "locId": "L276821",
        "locName": "Niagara--Below the Falls (ON)",
        "obsDt": "2024-05-09 12:56",
        "howMany": 2,
        "lat": 43.0804787,
        "lng": -79.0782702,
        "obsValid": true,
        "obsReviewed": false,
        "locationPrivate": false,
        "subId": "S173044216"
    },
    {
        "speciesCode": "nrwswa",
        "comName": "Northern Rough-winged Swallow",
        "sciName": "Stelgidopteryx serripennis",
        "locId": "L276821",
        "locName": "Niagara--Below the Falls (ON)",
        "obsDt": "2024-05-09 12:56",
        "howMany": 3,
        "lat": 43.0804787,
        "lng": -79.0782702,
        "obsValid": true,
        "obsReviewed": false,
        "locationPrivate": false,
        "subId": "S173044216"
    },
    {
        "speciesCode": "brncre",
        "comName": "Brown Creeper",
        "sciName": "Certhia americana",
        "locId": "L24027175",
        "locName": "1661–1691 Ch des Faucons, Nominingue CA-QC 46.38264, -75.00191",
        "obsDt": "2024-05-09 12:55",
        "howMany": 1,
        "lat": 46.382642,
        "lng": -75.001908,
        "obsValid": true,
        "obsReviewed": false,
        "locationPrivate": true,
        "subId": "S173036932"
    },
    {
        "speciesCode": "magwar",
        "comName": "Magnolia Warbler",
        "sciName": "Setophaga magnolia",
        "locId": "L16061801",
        "locName": "27 Parkwood Ave, Toronto CA-ON 43.68671, -79.40970",
        "obsDt": "2024-05-09 12:53",
        "howMany": 1,
        "lat": 43.68671,
        "lng": -79.4097,
        "obsValid": true,
        "obsReviewed": false,
        "locationPrivate": true,
        "subId": "S173048477"
    },
    {
        "speciesCode": "btbwar",
        "comName": "Black-throated Blue Warbler",
        "sciName": "Setophaga caerulescens",
        "locId": "L16061801",
        "locName": "27 Parkwood Ave, Toronto CA-ON 43.68671, -79.40970",
        "obsDt": "2024-05-09 12:53",
        "howMany": 1,
        "lat": 43.68671,
        "lng": -79.4097,
        "obsValid": true,
        "obsReviewed": false,
        "locationPrivate": true,
        "subId": "S173048477"
    },
    {
        "speciesCode": "tenwar",
        "comName": "Tennessee Warbler",
        "sciName": "Leiothlypis peregrina",
        "locId": "L16061801",
        "locName": "27 Parkwood Ave, Toronto CA-ON 43.68671, -79.40970",
        "obsDt": "2024-05-09 12:53",
        "howMany": 2,
        "lat": 43.68671,
        "lng": -79.4097,
        "obsValid": true,
        "obsReviewed": false,
        "locationPrivate": true,
        "subId": "S173048477"
    },
    {
        "speciesCode": "hoomer",
        "comName": "Hooded Merganser",
        "sciName": "Lophodytes cucullatus",
        "locId": "L18811953",
        "locName": "12841-12581 Dalewood Road, Talbotville, Ontario, CA (42.853, -81.18)",
        "obsDt": "2024-05-09 12:52",
        "howMany": 1,
        "lat": 42.8526467,
        "lng": -81.1797333,
        "obsValid": true,
        "obsReviewed": false,
        "locationPrivate": true,
        "subId": "S173036494"
    },
    {
        "speciesCode": "horlar",
        "comName": "Horned Lark",
        "sciName": "Eremophila alpestris",
        "locId": "L2817016",
        "locName": "Mersea Rd 21 fields",
        "obsDt": "2024-05-09 12:51",
        "howMany": 1,
        "lat": 42.0488226,
        "lng": -82.4884629,
        "obsValid": true,
        "obsReviewed": false,
        "locationPrivate": false,
        "subId": "S173034498"
    },
    {
        "speciesCode": "yebsap",
        "comName": "Yellow-bellied Sapsucker",
        "sciName": "Sphyrapicus varius",
        "locId": "L13084933",
        "locName": "Home - King Street, Temiskaming Shores, Ontario, CA (47.424, -79.645)",
        "obsDt": "2024-05-09 12:50",
        "howMany": 1,
        "lat": 47.4241116,
        "lng": -79.6452756,
        "obsValid": true,
        "obsReviewed": false,
        "locationPrivate": true,
        "subId": "S173035194"
    },
    {
        "speciesCode": "whwsco2",
        "comName": "White-winged Scoter",
        "sciName": "Melanitta deglandi",
        "locId": "L1752829",
        "locName": "Tommy Thompson Park--Bird Research Station",
        "obsDt": "2024-05-09 12:49",
        "howMany": 1,
        "lat": 43.6319065,
        "lng": -79.3307513,
        "obsValid": true,
        "obsReviewed": false,
        "locationPrivate": false,
        "subId": "S173046049"
    },
    {
        "speciesCode": "truswa",
        "comName": "Trumpeter Swan",
        "sciName": "Cygnus buccinator",
        "locId": "L1752829",
        "locName": "Tommy Thompson Park--Bird Research Station",
        "obsDt": "2024-05-09 12:49",
        "howMany": 2,
        "lat": 43.6319065,
        "lng": -79.3307513,
        "obsValid": true,
        "obsReviewed": false,
        "locationPrivate": false,
        "subId": "S173046049"
    },
    {
        "speciesCode": "bkbplo",
        "comName": "Black-bellied Plover",
        "sciName": "Pluvialis squatarola",
        "locId": "L283720",
        "locName": "Hillman Marsh CA (general location)",
        "obsDt": "2024-05-09 12:47",
        "howMany": 2,
        "lat": 42.0389667,
        "lng": -82.5091267,
        "obsValid": true,
        "obsReviewed": false,
        "locationPrivate": false,
        "subId": "S173042104"
    },
    {
        "speciesCode": "reshaw",
        "comName": "Red-shouldered Hawk",
        "sciName": "Buteo lineatus",
        "locId": "L31158411",
        "locName": "Parc Michel - Chartrand, Longueuil CA-QC 45.55179, -73.47020",
        "obsDt": "2024-05-09 12:45",
        "howMany": 1,
        "lat": 45.551787,
        "lng": -73.470202,
        "obsValid": true,
        "obsReviewed": false,
        "locationPrivate": true,
        "subId": "S173033177"
    },
    {
        "speciesCode": "bohwax",
        "comName": "Bohemian Waxwing",
        "sciName": "Bombycilla garrulus",
        "locId": "L2826079",
        "locName": "Etang Parent",
        "obsDt": "2024-05-09 12:44",
        "howMany": 2,
        "lat": 48.4336989,
        "lng": -68.5467648,
        "obsValid": true,
        "obsReviewed": false,
        "locationPrivate": false,
        "subId": "S173042922"
    },
    {
        "speciesCode": "y00478",
        "comName": "Iceland Gull",
        "sciName": "Larus glaucoides",
        "locId": "L2826079",
        "locName": "Etang Parent",
        "obsDt": "2024-05-09 12:44",
        "howMany": 2,
        "lat": 48.4336989,
        "lng": -68.5467648,
        "obsValid": true,
        "obsReviewed": false,
        "locationPrivate": false,
        "subId": "S173042922"
    },
    {
        "speciesCode": "shshaw",
        "comName": "Sharp-shinned Hawk",
        "sciName": "Accipiter striatus",
        "locId": "L31475892",
        "locName": "203 Boulevard Perron Est, Sainte-Anne-des-Monts, Québec, CA (49,169, -66,359)",
        "obsDt": "2024-05-09 12:40",
        "howMany": 1,
        "lat": 49.1688683,
        "lng": -66.3594917,
        "obsValid": true,
        "obsReviewed": false,
        "locationPrivate": true,
        "subId": "S173031810"
    },
    {
        "speciesCode": "phivir",
        "comName": "Philadelphia Vireo",
        "sciName": "Vireo philadelphicus",
        "locId": "L4579811",
        "locName": "Point Pelee NP--Park Orientation",
        "obsDt": "2024-05-09 12:38",
        "howMany": 1,
        "lat": 41.9849356,
        "lng": -82.5479875,
        "obsValid": true,
        "obsReviewed": false,
        "locationPrivate": false,
        "subId": "S173035993"
    },
    {
        "speciesCode": "veery",
        "comName": "Veery",
        "sciName": "Catharus fuscescens",
        "locId": "L2837598",
        "locName": "Point Pelee NP--Cactus Trail",
        "obsDt": "2024-05-09 12:37",
        "howMany": 1,
        "lat": 41.939374,
        "lng": -82.5158429,
        "obsValid": true,
        "obsReviewed": false,
        "locationPrivate": false,
        "subId": "S173043565"
    },
    {
        "speciesCode": "savspa",
        "comName": "Savannah Sparrow",
        "sciName": "Passerculus sandwichensis",
        "locId": "L30979610",
        "locName": "Champ rue Bertrand",
        "obsDt": "2024-05-09 12:36",
        "howMany": 4,
        "lat": 46.708745,
        "lng": -71.627707,
        "obsValid": true,
        "obsReviewed": false,
        "locationPrivate": true,
        "subId": "S173040772"
    },
    {
        "speciesCode": "grnher",
        "comName": "Green Heron",
        "sciName": "Butorides virescens",
        "locId": "L910324",
        "locName": "Point Pelee NP--DeLaurier Homestead Trail",
        "obsDt": "2024-05-09 12:35",
        "howMany": 2,
        "lat": 41.9501084,
        "lng": -82.5180826,
        "obsValid": true,
        "obsReviewed": false,
        "locationPrivate": false,
        "subId": "S173048307"
    },
    {
        "speciesCode": "pibgre",
        "comName": "Pied-billed Grebe",
        "sciName": "Podilymbus podiceps",
        "locId": "L13984465",
        "locName": "Jardin Botanique, Montréal CA-QC 45.55929, -73.55575",
        "obsDt": "2024-05-09 12:34",
        "howMany": 1,
        "lat": 45.559288,
        "lng": -73.555755,
        "obsValid": true,
        "obsReviewed": false,
        "locationPrivate": true,
        "subId": "S173035412"
    },
    {
        "speciesCode": "rinphe1",
        "comName": "Ring-necked Pheasant",
        "sciName": "Phasianus colchicus",
        "locId": "L23677072",
        "locName": "86 Helen Lucy Rd, Yarmouth CA-NS 43.86144, -66.15518",
        "obsDt": "2024-05-09 12:31",
        "howMany": 1,
        "lat": 43.861436,
        "lng": -66.155177,
        "obsValid": true,
        "obsReviewed": false,
        "locationPrivate": true,
        "subId": "S173016808",
        "exoticCategory": "N"
    },
    {
        "speciesCode": "clcspa",
        "comName": "Clay-colored Sparrow",
        "sciName": "Spizella pallida",
        "locId": "L10933173",
        "locName": "72 Saratoga Rd, Kincardine CA-ON 44.15010, -81.63078",
        "obsDt": "2024-05-09 12:30",
        "howMany": 3,
        "lat": 44.150099,
        "lng": -81.63078,
        "obsValid": true,
        "obsReviewed": false,
        "locationPrivate": true,
        "subId": "S173030382"
    },
    {
        "speciesCode": "merlin",
        "comName": "Merlin",
        "sciName": "Falco columbarius",
        "locId": "L9808310",
        "locName": "Ottawa--Gregory Casey Stormwater Management Facility",
        "obsDt": "2024-05-09 12:29",
        "howMany": 1,
        "lat": 45.259397,
        "lng": -75.772328,
        "obsValid": true,
        "obsReviewed": false,
        "locationPrivate": false,
        "subId": "S173041167"
    },
    {
        "speciesCode": "bcnher",
        "comName": "Black-crowned Night Heron",
        "sciName": "Nycticorax nycticorax",
        "locId": "L9808310",
        "locName": "Ottawa--Gregory Casey Stormwater Management Facility",
        "obsDt": "2024-05-09 12:29",
        "howMany": 1,
        "lat": 45.259397,
        "lng": -75.772328,
        "obsValid": true,
        "obsReviewed": false,
        "locationPrivate": false,
        "subId": "S173041167"
    },
    {
        "speciesCode": "eawpew",
        "comName": "Eastern Wood-Pewee",
        "sciName": "Contopus virens",
        "locId": "L418519",
        "locName": "Wheatley--Kopegaron Woods CA",
        "obsDt": "2024-05-09 12:28",
        "howMany": 1,
        "lat": 42.077967,
        "lng": -82.4918747,
        "obsValid": true,
        "obsReviewed": false,
        "locationPrivate": false,
        "subId": "S173042368"
    },
    {
        "speciesCode": "indbun",
        "comName": "Indigo Bunting",
        "sciName": "Passerina cyanea",
        "locId": "L418519",
        "locName": "Wheatley--Kopegaron Woods CA",
        "obsDt": "2024-05-09 12:28",
        "howMany": 1,
        "lat": 42.077967,
        "lng": -82.4918747,
        "obsValid": true,
        "obsReviewed": false,
        "locationPrivate": false,
        "subId": "S173042368"
    },
    {
        "speciesCode": "woothr",
        "comName": "Wood Thrush",
        "sciName": "Hylocichla mustelina",
        "locId": "L418519",
        "locName": "Wheatley--Kopegaron Woods CA",
        "obsDt": "2024-05-09 12:28",
        "howMany": 1,
        "lat": 42.077967,
        "lng": -82.4918747,
        "obsValid": true,
        "obsReviewed": false,
        "locationPrivate": false,
        "subId": "S173042368"
    },
    {
        "speciesCode": "willet1",
        "comName": "Willet",
        "sciName": "Tringa semipalmata",
        "locId": "L5442619",
        "locName": "Upper Woods Harbour--Popes Road",
        "obsDt": "2024-05-09 12:27",
        "howMany": 1,
        "lat": 43.5793479,
        "lng": -65.7544434,
        "obsValid": true,
        "obsReviewed": false,
        "locationPrivate": false,
        "subId": "S173020410"
    },
    {
        "speciesCode": "gockin",
        "comName": "Golden-crowned Kinglet",
        "sciName": "Regulus satrapa",
        "locId": "L3926380",
        "locName": "Deer Island--Clark Gregory Nature Preserve",
        "obsDt": "2024-05-09 12:27",
        "howMany": 2,
        "lat": 44.9491733,
        "lng": -66.9703281,
        "obsValid": true,
        "obsReviewed": false,
        "locationPrivate": false,
        "subId": "S173015902"
    },
    {
        "speciesCode": "ferhaw",
        "comName": "Ferruginous Hawk",
        "sciName": "Buteo regalis",
        "locId": "L31475263",
        "locName": "4550 Talbot Trail, Merlin, Ontario, CA (42.182, -82.24)",
        "obsDt": "2024-05-09 12:26",
        "howMany": 1,
        "lat": 42.1817364,
        "lng": -82.239899,
        "obsValid": true,
        "obsReviewed": true,
        "locationPrivate": true,
        "subId": "S173028765"
    },
    {
        "speciesCode": "rehwoo",
        "comName": "Red-headed Woodpecker",
        "sciName": "Melanerpes erythrocephalus",
        "locId": "L384719",
        "locName": "Leamington--onion fields between Hillman Marsh and Point Pelee",
        "obsDt": "2024-05-09 12:24",
        "howMany": 1,
        "lat": 42.0105298,
        "lng": -82.526722,
        "obsValid": true,
        "obsReviewed": false,
        "locationPrivate": false,
        "subId": "S173038574"
    },
    {
        "speciesCode": "bkbmag1",
        "comName": "Black-billed Magpie",
        "sciName": "Pica hudsonia",
        "locId": "L31475228",
        "locName": "18561-18709 Fargo Road, Blenheim, Ontario, CA (42.294, -81.943)",
        "obsDt": "2024-05-09 12:24",
        "howMany": 2,
        "lat": 42.2940849,
        "lng": -81.9432129,
        "obsValid": true,
        "obsReviewed": true,
        "locationPrivate": true,
        "subId": "S173028561",
        "exoticCategory": "P"
    },
    {
        "speciesCode": "buwwar",
        "comName": "Blue-winged Warbler",
        "sciName": "Vermivora cyanoptera",
        "locId": "L6660364",
        "locName": "Dundas Valley CA--HCA HQ",
        "obsDt": "2024-05-09 12:21",
        "howMany": 1,
        "lat": 43.2347798,
        "lng": -80.0075845,
        "obsValid": true,
        "obsReviewed": false,
        "locationPrivate": false,
        "subId": "S173031349"
    },
    {
        "speciesCode": "greyel",
        "comName": "Greater Yellowlegs",
        "sciName": "Tringa melanoleuca",
        "locId": "L803888",
        "locName": "Cape Sable Island--Daniel's Head",
        "obsDt": "2024-05-09 12:20",
        "howMany": 1,
        "lat": 43.4415778,
        "lng": -65.5901814,
        "obsValid": true,
        "obsReviewed": false,
        "locationPrivate": false,
        "subId": "S173020036"
    },
    {
        "speciesCode": "rufgro",
        "comName": "Ruffed Grouse",
        "sciName": "Bonasa umbellus",
        "locId": "L1280758",
        "locName": "Lake Laurentian CA",
        "obsDt": "2024-05-09 12:18",
        "howMany": 5,
        "lat": 46.4553623,
        "lng": -80.9417725,
        "obsValid": true,
        "obsReviewed": false,
        "locationPrivate": false,
        "subId": "S173044653"
    },
    {
        "speciesCode": "commer",
        "comName": "Common Merganser",
        "sciName": "Mergus merganser",
        "locId": "L3026681",
        "locName": "Port de Cacouna",
        "obsDt": "2024-05-09 12:16",
        "howMany": 2,
        "lat": 47.93048,
        "lng": -69.516077,
        "obsValid": true,
        "obsReviewed": false,
        "locationPrivate": false,
        "subId": "S173038118"
    },
    {
        "speciesCode": "marwre",
        "comName": "Marsh Wren",
        "sciName": "Cistothorus palustris",
        "locId": "L883710",
        "locName": "Ken Reid CA",
        "obsDt": "2024-05-09 12:14",
        "howMany": 9,
        "lat": 44.4023918,
        "lng": -78.7623596,
        "obsValid": true,
        "obsReviewed": false,
        "locationPrivate": false,
        "subId": "S173038916"
    },
    {
        "speciesCode": "pingro",
        "comName": "Pine Grosbeak",
        "sciName": "Pinicola enucleator",
        "locId": "L30536471",
        "locName": "Pasadena, Pasadena CA-NL (48.9905,-57.5809)Marten Trail",
        "obsDt": "2024-05-09 12:14",
        "howMany": 1,
        "lat": 48.990484,
        "lng": -57.580879,
        "obsValid": true,
        "obsReviewed": false,
        "locationPrivate": true,
        "subId": "S173030905"
    },
    {
        "speciesCode": "virrai",
        "comName": "Virginia Rail",
        "sciName": "Rallus limicola",
        "locId": "L1562011",
        "locName": "Prince Edward Point  NWA--Prince Edward Point Bird Observatory",
        "obsDt": "2024-05-09 12:13",
        "howMany": 1,
        "lat": 43.9391343,
        "lng": -76.8611455,
        "obsValid": true,
        "obsReviewed": false,
        "locationPrivate": false,
        "subId": "S173037196"
    },
    {
        "speciesCode": "comgol",
        "comName": "Common Goldeneye",
        "sciName": "Bucephala clangula",
        "locId": "L2998521",
        "locName": "Piste cyclable Gaspé",
        "obsDt": "2024-05-09 12:11",
        "howMany": 8,
        "lat": 48.8246101,
        "lng": -64.4631386,
        "obsValid": true,
        "obsReviewed": false,
        "locationPrivate": true,
        "subId": "S173047825"
    },
    {
        "speciesCode": "orcwar",
        "comName": "Orange-crowned Warbler",
        "sciName": "Leiothlypis celata",
        "locId": "L4084525",
        "locName": "CAN-MB-Winnipeg, Cloutier Dr",
        "obsDt": "2024-05-09 12:10",
        "howMany": 1,
        "lat": 49.7817906,
        "lng": -97.138077,
        "obsValid": true,
        "obsReviewed": false,
        "locationPrivate": true,
        "subId": "S173043852"
    },
    {
        "speciesCode": "fragul",
        "comName": "Franklin's Gull",
        "sciName": "Leucophaeus pipixcan",
        "locId": "L4084525",
        "locName": "CAN-MB-Winnipeg, Cloutier Dr",
        "obsDt": "2024-05-09 12:10",
        "howMany": 2,
        "lat": 49.7817906,
        "lng": -97.138077,
        "obsValid": true,
        "obsReviewed": false,
        "locationPrivate": true,
        "subId": "S173043852"
    },
    {
        "speciesCode": "vesspa",
        "comName": "Vesper Sparrow",
        "sciName": "Pooecetes gramineus",
        "locId": "L418519",
        "locName": "Wheatley--Kopegaron Woods CA",
        "obsDt": "2024-05-09 12:09",
        "howMany": 1,
        "lat": 42.077967,
        "lng": -82.4918747,
        "obsValid": true,
        "obsReviewed": false,
        "locationPrivate": false,
        "subId": "S173042552"
    },
    {
        "speciesCode": "amtspa",
        "comName": "American Tree Sparrow",
        "sciName": "Spizelloides arborea",
        "locId": "L18604604",
        "locName": "24 Lakeview Dr, Terrace Bay CA-ON 48.78050, -87.10836",
        "obsDt": "2024-05-09 12:09",
        "howMany": 1,
        "lat": 48.780504,
        "lng": -87.10836,
        "obsValid": true,
        "obsReviewed": false,
        "locationPrivate": true,
        "subId": "S173042509"
    },
    {
        "speciesCode": "normoc",
        "comName": "Northern Mockingbird",
        "sciName": "Mimus polyglottos",
        "locId": "L5793651",
        "locName": "Berwick Sewage Lagoons",
        "obsDt": "2024-05-09 12:06",
        "howMany": 1,
        "lat": 45.0537636,
        "lng": -64.7321933,
        "obsValid": true,
        "obsReviewed": false,
        "locationPrivate": false,
        "subId": "S173010717"
    },
    {
        "speciesCode": "yetvir",
        "comName": "Yellow-throated Vireo",
        "sciName": "Vireo flavifrons",
        "locId": "L566934",
        "locName": "Charleston Lake Provincial Park (general location)",
        "obsDt": "2024-05-09 12:05",
        "howMany": 2,
        "lat": 44.5062389,
        "lng": -76.033287,
        "obsValid": true,
        "obsReviewed": false,
        "locationPrivate": false,
        "subId": "S173035153"
    },
    {
        "speciesCode": "prowar",
        "comName": "Prothonotary Warbler",
        "sciName": "Protonotaria citrea",
        "locId": "L265518",
        "locName": "Rondeau Provincial Park (general location)",
        "obsDt": "2024-05-09 12:04",
        "howMany": 2,
        "lat": 42.2953758,
        "lng": -81.8571571,
        "obsValid": true,
        "obsReviewed": false,
        "locationPrivate": false,
        "subId": "S173040582"
    },
    {
        "speciesCode": "easowl1",
        "comName": "Eastern Screech-Owl",
        "sciName": "Megascops asio",
        "locId": "L14895234",
        "locName": "Rondeau Provincial Park, Morpeth CA-ON 42.28372, -81.84242",
        "obsDt": "2024-05-09 12:03",
        "howMany": 1,
        "lat": 42.283724,
        "lng": -81.842417,
        "obsValid": true,
        "obsReviewed": false,
        "locationPrivate": true,
        "subId": "S173023790"
    },
    {
        "speciesCode": "hoowar",
        "comName": "Hooded Warbler",
        "sciName": "Setophaga citrina",
        "locId": "L910342",
        "locName": "Point Pelee NP--Woodland Nature Trail",
        "obsDt": "2024-05-09 12:01",
        "howMany": 1,
        "lat": 41.9283198,
        "lng": -82.5100064,
        "obsValid": true,
        "obsReviewed": false,
        "locationPrivate": false,
        "subId": "S173047086"
    },
    {
        "speciesCode": "linspa",
        "comName": "Lincoln's Sparrow",
        "sciName": "Melospiza lincolnii",
        "locId": "L663110",
        "locName": "Base de plein air de Ste-Foy",
        "obsDt": "2024-05-09 11:57",
        "howMany": 1,
        "lat": 46.7906725,
        "lng": -71.3303447,
        "obsValid": true,
        "obsReviewed": false,
        "locationPrivate": false,
        "subId": "S173035237"
    },
    {
        "speciesCode": "swathr",
        "comName": "Swainson's Thrush",
        "sciName": "Catharus ustulatus",
        "locId": "L1313486",
        "locName": "Peterborough--Trent University Wildlife Sanctuary Nature Area",
        "obsDt": "2024-05-09 11:57",
        "howMany": 1,
        "lat": 44.3471503,
        "lng": -78.2836322,
        "obsValid": true,
        "obsReviewed": false,
        "locationPrivate": false,
        "subId": "S173046661"
    },
    {
        "speciesCode": "margod",
        "comName": "Marbled Godwit",
        "sciName": "Limosa fedoa",
        "locId": "L6108044",
        "locName": "Avonlea (town)",
        "obsDt": "2024-05-09 11:54",
        "howMany": 1,
        "lat": 50.0145524,
        "lng": -105.0572813,
        "obsValid": true,
        "obsReviewed": false,
        "locationPrivate": false,
        "subId": "S173047816"
    },
    {
        "speciesCode": "bargol",
        "comName": "Barrow's Goldeneye",
        "sciName": "Bucephala islandica",
        "locId": "L5760169",
        "locName": "Banff National Park--Johnson Lake",
        "obsDt": "2024-05-09 11:54",
        "howMany": 2,
        "lat": 51.1980368,
        "lng": -115.4880474,
        "obsValid": true,
        "obsReviewed": false,
        "locationPrivate": false,
        "subId": "S173048451"
    },
    {
        "speciesCode": "graspa",
        "comName": "Grasshopper Sparrow",
        "sciName": "Ammodramus savannarum",
        "locId": "L31475495",
        "locName": "1961–2075 Assumption Rd, Otonabee-South Monaghan CA-ON 44.26202, -78.29281",
        "obsDt": "2024-05-09 11:50",
        "howMany": 1,
        "lat": 44.262021,
        "lng": -78.292813,
        "obsValid": true,
        "obsReviewed": false,
        "locationPrivate": true,
        "subId": "S173029885"
    },
    {
        "speciesCode": "calhum",
        "comName": "Calliope Hummingbird",
        "sciName": "Selasphorus calliope",
        "locId": "L31080715",
        "locName": "594 Lafontaine Rd E, Columbia Shuswap CA-BC 51.31244, -116.93271",
        "obsDt": "2024-05-09 11:48",
        "howMany": 1,
        "lat": 51.312436,
        "lng": -116.932709,
        "obsValid": true,
        "obsReviewed": false,
        "locationPrivate": true,
        "subId": "S173046598"
    },
    {
        "speciesCode": "casvir",
        "comName": "Cassin's Vireo",
        "sciName": "Vireo cassinii",
        "locId": "L31080715",
        "locName": "594 Lafontaine Rd E, Columbia Shuswap CA-BC 51.31244, -116.93271",
        "obsDt": "2024-05-09 11:44",
        "howMany": 1,
        "lat": 51.312436,
        "lng": -116.932709,
        "obsValid": true,
        "obsReviewed": false,
        "locationPrivate": true,
        "subId": "S173045798"
    },
    {
        "speciesCode": "pursan",
        "comName": "Purple Sandpiper",
        "sciName": "Calidris maritima",
        "locId": "L25534607",
        "locName": "121 Route de la Grève, Saint-Simon-de-Rimouski, Québec, CA (48,207, -69,078)",
        "obsDt": "2024-05-09 11:43",
        "howMany": 1,
        "lat": 48.2069853,
        "lng": -69.0775881,
        "obsValid": true,
        "obsReviewed": false,
        "locationPrivate": true,
        "subId": "S173020726"
    },
    {
        "speciesCode": "rengre",
        "comName": "Red-necked Grebe",
        "sciName": "Podiceps grisegena",
        "locId": "L1742580",
        "locName": "Oakville--Bronte Heritage Park",
        "obsDt": "2024-05-09 11:42",
        "howMany": 2,
        "lat": 43.3958881,
        "lng": -79.7045392,
        "obsValid": true,
        "obsReviewed": false,
        "locationPrivate": false,
        "subId": "S173020065"
    },
    {
        "speciesCode": "brebla",
        "comName": "Brewer's Blackbird",
        "sciName": "Euphagus cyanocephalus",
        "locId": "L5831888",
        "locName": "CA-MB-Chalet Beach Rd - 50.4176x-96.9286 - May 13, 2017, 10:27 PM",
        "obsDt": "2024-05-09 11:42",
        "howMany": 26,
        "lat": 50.417571,
        "lng": -96.928562,
        "obsValid": true,
        "obsReviewed": false,
        "locationPrivate": true,
        "subId": "S173040016"
    },
    {
        "speciesCode": "amwpel",
        "comName": "American White Pelican",
        "sciName": "Pelecanus erythrorhynchos",
        "locId": "L5831888",
        "locName": "CA-MB-Chalet Beach Rd - 50.4176x-96.9286 - May 13, 2017, 10:27 PM",
        "obsDt": "2024-05-09 11:42",
        "howMany": 1,
        "lat": 50.417571,
        "lng": -96.928562,
        "obsValid": true,
        "obsReviewed": false,
        "locationPrivate": true,
        "subId": "S173040016"
    },
    {
        "speciesCode": "moublu",
        "comName": "Mountain Bluebird",
        "sciName": "Sialia currucoides",
        "locId": "L31478808",
        "locName": "33610–33804 Highway 791, Mountain View County CA-AB 51.84252, -113.80799",
        "obsDt": "2024-05-09 11:39",
        "howMany": 2,
        "lat": 51.842523,
        "lng": -113.807993,
        "obsValid": true,
        "obsReviewed": false,
        "locationPrivate": true,
        "subId": "S173045925"
    },
    {
        "speciesCode": "eargre",
        "comName": "Eared Grebe",
        "sciName": "Podiceps nigricollis",
        "locId": "L14359646",
        "locName": "126 Leva Avenue, Red Deer County, Alberta, CA (52.204, -113.818)",
        "obsDt": "2024-05-09 11:37",
        "howMany": 2,
        "lat": 52.204017,
        "lng": -113.8183842,
        "obsValid": true,
        "obsReviewed": false,
        "locationPrivate": true,
        "subId": "S173047010"
    },
    {
        "speciesCode": "canvas",
        "comName": "Canvasback",
        "sciName": "Aythya valisineria",
        "locId": "L14359646",
        "locName": "126 Leva Avenue, Red Deer County, Alberta, CA (52.204, -113.818)",
        "obsDt": "2024-05-09 11:37",
        "howMany": 1,
        "lat": 52.204017,
        "lng": -113.8183842,
        "obsValid": true,
        "obsReviewed": false,
        "locationPrivate": true,
        "subId": "S173047010"
    },
    {
        "speciesCode": "y00475",
        "comName": "American Coot",
        "sciName": "Fulica americana",
        "locId": "L14359646",
        "locName": "126 Leva Avenue, Red Deer County, Alberta, CA (52.204, -113.818)",
        "obsDt": "2024-05-09 11:37",
        "howMany": 16,
        "lat": 52.204017,
        "lng": -113.8183842,
        "obsValid": true,
        "obsReviewed": false,
        "locationPrivate": true,
        "subId": "S173047010"
    },
    {
        "speciesCode": "grhowl",
        "comName": "Great Horned Owl",
        "sciName": "Bubo virginianus",
        "locId": "L31478538",
        "locName": "284130–284998 Highway 533, Willow Creek No. 26 CA-AB 50.33902, -113.81855",
        "obsDt": "2024-05-09 11:36",
        "howMany": 3,
        "lat": 50.339016,
        "lng": -113.818553,
        "obsValid": true,
        "obsReviewed": false,
        "locationPrivate": true,
        "subId": "S173044589"
    },
    {
        "speciesCode": "wesmea",
        "comName": "Western Meadowlark",
        "sciName": "Sturnella neglecta",
        "locId": "L6202259",
        "locName": "Callahan's Ponds",
        "obsDt": "2024-05-09 11:34",
        "howMany": 1,
        "lat": 50.571323,
        "lng": -113.7814454,
        "obsValid": true,
        "obsReviewed": false,
        "locationPrivate": false,
        "subId": "S173044967"
    },
    {
        "speciesCode": "amebit",
        "comName": "American Bittern",
        "sciName": "Botaurus lentiginosus",
        "locId": "L5810969",
        "locName": "CA-ON-Ottawa-701-835 Berry Side Rd - 45.4121x-75.9607",
        "obsDt": "2024-05-09 11:33",
        "howMany": 1,
        "lat": 45.412054,
        "lng": -75.960693,
        "obsValid": true,
        "obsReviewed": false,
        "locationPrivate": true,
        "subId": "S173026817"
    },
    {
        "speciesCode": "hamfly",
        "comName": "Hammond's Flycatcher",
        "sciName": "Empidonax hammondii",
        "locId": "L303525",
        "locName": "Dutch Creek Hoodoos",
        "obsDt": "2024-05-09 11:31",
        "howMany": 4,
        "lat": 50.3125,
        "lng": -115.89835,
        "obsValid": true,
        "obsReviewed": false,
        "locationPrivate": false,
        "subId": "S173044970"
    },
    {
        "speciesCode": "whtswi",
        "comName": "White-throated Swift",
        "sciName": "Aeronautes saxatalis",
        "locId": "L303525",
        "locName": "Dutch Creek Hoodoos",
        "obsDt": "2024-05-09 11:31",
        "howMany": 5,
        "lat": 50.3125,
        "lng": -115.89835,
        "obsValid": true,
        "obsReviewed": false,
        "locationPrivate": false,
        "subId": "S173044970"
    },
    {
        "speciesCode": "redhea",
        "comName": "Redhead",
        "sciName": "Aythya americana",
        "locId": "L1782673",
        "locName": "Erieau Marsh Trail",
        "obsDt": "2024-05-09 11:30",
        "howMany": 8,
        "lat": 42.2665036,
        "lng": -81.9384214,
        "obsValid": true,
        "obsReviewed": false,
        "locationPrivate": false,
        "subId": "S173024603"
    },
    {
        "speciesCode": "yehbla",
        "comName": "Yellow-headed Blackbird",
        "sciName": "Xanthocephalus xanthocephalus",
        "locId": "L31478677",
        "locName": "282049–282055 Highway 533, Willow Creek No. 26 CA-AB 50.33868, -113.76587",
        "obsDt": "2024-05-09 11:30",
        "howMany": 1,
        "lat": 50.33868,
        "lng": -113.765875,
        "obsValid": true,
        "obsReviewed": false,
        "locationPrivate": true,
        "subId": "S173045274"
    },
    {
        "speciesCode": "snogoo",
        "comName": "Snow Goose",
        "sciName": "Anser caerulescens",
        "locId": "L31478123",
        "locName": "Trans Canada Highway 1 W, Improvement District No. 9 Banff CA-AB 51.39220, -116.13409",
        "obsDt": "2024-05-09 11:28",
        "howMany": 1,
        "lat": 51.392196,
        "lng": -116.134094,
        "obsValid": true,
        "obsReviewed": false,
        "locationPrivate": true,
        "subId": "S173042627"
    },
    {
        "speciesCode": "rusbla",
        "comName": "Rusty Blackbird",
        "sciName": "Euphagus carolinus",
        "locId": "L2830324",
        "locName": "Etang Dollard",
        "obsDt": "2024-05-09 11:26",
        "howMany": 1,
        "lat": 48.4364378,
        "lng": -68.5471172,
        "obsValid": true,
        "obsReviewed": false,
        "locationPrivate": false,
        "subId": "S173029837"
    },
    {
        "speciesCode": "swahaw",
        "comName": "Swainson's Hawk",
        "sciName": "Buteo swainsoni",
        "locId": "L31477699",
        "locName": "Nate’s neighborhood",
        "obsDt": "2024-05-09 11:17",
        "howMany": 1,
        "lat": 50.023232,
        "lng": -110.694059,
        "obsValid": true,
        "obsReviewed": false,
        "locationPrivate": true,
        "subId": "S173040697"
    },
    {
        "speciesCode": "brant",
        "comName": "Brant",
        "sciName": "Branta bernicla",
        "locId": "L19928061",
        "locName": "Ch de la Pointe-des-Monts, Baie-Trinité",
        "obsDt": "2024-05-09 11:10",
        "howMany": 4,
        "lat": 49.340558,
        "lng": -67.392566,
        "obsValid": true,
        "obsReviewed": false,
        "locationPrivate": true,
        "subId": "S173047663"
    },
    {
        "speciesCode": "mouchi",
        "comName": "Mountain Chickadee",
        "sciName": "Poecile gambeli",
        "locId": "L345993",
        "locName": "Banff National Park--Tunnel Mountain",
        "obsDt": "2024-05-09 11:07",
        "howMany": 7,
        "lat": 51.17626,
        "lng": -115.5608,
        "obsValid": true,
        "obsReviewed": false,
        "locationPrivate": false,
        "subId": "S173040302"
    },
    {
        "speciesCode": "attwoo1",
        "comName": "American Three-toed Woodpecker",
        "sciName": "Picoides dorsalis",
        "locId": "L345993",
        "locName": "Banff National Park--Tunnel Mountain",
        "obsDt": "2024-05-09 11:07",
        "howMany": 1,
        "lat": 51.17626,
        "lng": -115.5608,
        "obsValid": true,
        "obsReviewed": false,
        "locationPrivate": false,
        "subId": "S173040302"
    },
    {
        "speciesCode": "whwcro",
        "comName": "White-winged Crossbill",
        "sciName": "Loxia leucoptera",
        "locId": "L1804283",
        "locName": "Goulds--Bidgood Park",
        "obsDt": "2024-05-09 11:06",
        "howMany": 19,
        "lat": 47.4514245,
        "lng": -52.7893066,
        "obsValid": true,
        "obsReviewed": false,
        "locationPrivate": false,
        "subId": "S173021103"
    },
    {
        "speciesCode": "lobdow",
        "comName": "Long-billed Dowitcher",
        "sciName": "Limnodromus scolopaceus",
        "locId": "L9164988",
        "locName": "Range Road 61, Redcliff, Alberta, CA (50.179, -110.71)",
        "obsDt": "2024-05-09 11:02",
        "howMany": 4,
        "lat": 50.1789467,
        "lng": -110.7097257,
        "obsValid": true,
        "obsReviewed": false,
        "locationPrivate": true,
        "subId": "S173045699"
    },
    {
        "speciesCode": "wilpha",
        "comName": "Wilson's Phalarope",
        "sciName": "Phalaropus tricolor",
        "locId": "L980219",
        "locName": "Barrie Lake",
        "obsDt": "2024-05-09 11:01",
        "howMany": 3,
        "lat": 51.7679992,
        "lng": -114.1869164,
        "obsValid": true,
        "obsReviewed": false,
        "locationPrivate": false,
        "subId": "S173038725"
    },
    {
        "speciesCode": "leabit",
        "comName": "Least Bittern",
        "sciName": "Ixobrychus exilis",
        "locId": "L3817415",
        "locName": "Sandbanks Provincial Park--Camper's Beach",
        "obsDt": "2024-05-09 10:52",
        "howMany": 1,
        "lat": 43.8866969,
        "lng": -77.2164202,
        "obsValid": true,
        "obsReviewed": false,
        "locationPrivate": false,
        "subId": "S173040134"
    },
    {
        "speciesCode": "bkpwar",
        "comName": "Blackpoll Warbler",
        "sciName": "Setophaga striata",
        "locId": "L15862231",
        "locName": "Rondeau PP--Water Street",
        "obsDt": "2024-05-09 10:43",
        "howMany": 1,
        "lat": 42.3132253,
        "lng": -81.8513583,
        "obsValid": true,
        "obsReviewed": false,
        "locationPrivate": false,
        "subId": "S173012430"
    },
    {
        "speciesCode": "ameavo",
        "comName": "American Avocet",
        "sciName": "Recurvirostra americana",
        "locId": "L31475980",
        "locName": "80151–80187 Highway 552, Foothills No. 31 CA-AB (50.8048,-113.8700)",
        "obsDt": "2024-05-09 10:42",
        "howMany": 1,
        "lat": 50.804843,
        "lng": -113.870038,
        "obsValid": true,
        "obsReviewed": false,
        "locationPrivate": true,
        "subId": "S173032310"
    },
    {
        "speciesCode": "wlswar",
        "comName": "Wilson's Warbler",
        "sciName": "Cardellina pusilla",
        "locId": "L1025369",
        "locName": "Whitehorse--Yukon River--Rotary Centennial Bridge (Millennium Trail) & dam",
        "obsDt": "2024-05-09 10:41",
        "howMany": 1,
        "lat": 60.6991251,
        "lng": -135.0429132,
        "obsValid": true,
        "obsReviewed": false,
        "locationPrivate": false,
        "subId": "S173047138"
    },
    {
        "speciesCode": "coohaw",
        "comName": "Cooper's Hawk",
        "sciName": "Accipiter cooperii",
        "locId": "L1815802",
        "locName": "Toronto--West Deane Park",
        "obsDt": "2024-05-09 10:41",
        "howMany": 1,
        "lat": 43.6597692,
        "lng": -79.5602524,
        "obsValid": true,
        "obsReviewed": false,
        "locationPrivate": false,
        "subId": "S173028542"
    },
    {
        "speciesCode": "mewgul2",
        "comName": "Short-billed Gull",
        "sciName": "Larus brachyrhynchus",
        "locId": "L1025369",
        "locName": "Whitehorse--Yukon River--Rotary Centennial Bridge (Millennium Trail) & dam",
        "obsDt": "2024-05-09 10:41",
        "howMany": 3,
        "lat": 60.6991251,
        "lng": -135.0429132,
        "obsValid": true,
        "obsReviewed": false,
        "locationPrivate": false,
        "subId": "S173047138"
    },
    {
        "speciesCode": "vigswa",
        "comName": "Violet-green Swallow",
        "sciName": "Tachycineta thalassina",
        "locId": "L1025369",
        "locName": "Whitehorse--Yukon River--Rotary Centennial Bridge (Millennium Trail) & dam",
        "obsDt": "2024-05-09 10:41",
        "howMany": 1,
        "lat": 60.6991251,
        "lng": -135.0429132,
        "obsValid": true,
        "obsReviewed": false,
        "locationPrivate": false,
        "subId": "S173047138"
    },
    {
        "speciesCode": "rebsap",
        "comName": "Red-breasted Sapsucker",
        "sciName": "Sphyrapicus ruber",
        "locId": "L9860776",
        "locName": "Larry’s yard",
        "obsDt": "2024-05-09 10:39",
        "howMany": 1,
        "lat": 55.264466,
        "lng": -127.65222,
        "obsValid": true,
        "obsReviewed": false,
        "locationPrivate": true,
        "subId": "S173048642"
    },
    {
        "speciesCode": "bkhgul",
        "comName": "Black-headed Gull",
        "sciName": "Chroicocephalus ridibundus",
        "locId": "L453271",
        "locName": "St. John's--Mundy Pond",
        "obsDt": "2024-05-09 10:38",
        "howMany": 1,
        "lat": 47.552491,
        "lng": -52.7386665,
        "obsValid": true,
        "obsReviewed": true,
        "locationPrivate": false,
        "subId": "S172989965"
    },
    {
        "speciesCode": "gowwar",
        "comName": "Golden-winged Warbler",
        "sciName": "Vermivora chrysoptera",
        "locId": "L7424209",
        "locName": "2831 Unity Rd, Kingston CA-ON (44.3175,-76.5862)",
        "obsDt": "2024-05-09 10:35",
        "howMany": 1,
        "lat": 44.317478,
        "lng": -76.586244,
        "obsValid": true,
        "obsReviewed": false,
        "locationPrivate": true,
        "subId": "S173025772"
    },
    {
        "speciesCode": "horgre",
        "comName": "Horned Grebe",
        "sciName": "Podiceps auritus",
        "locId": "L5714357",
        "locName": "Edmonton—Twin Brooks pond",
        "obsDt": "2024-05-09 10:34",
        "howMany": 1,
        "lat": 53.4421835,
        "lng": -113.5314098,
        "obsValid": true,
        "obsReviewed": false,
        "locationPrivate": false,
        "subId": "S173034830"
    },
    {
        "speciesCode": "towwar",
        "comName": "Townsend's Warbler",
        "sciName": "Setophaga townsendi",
        "locId": "L31478750",
        "locName": "Meadows in the Sky Parkway, British Columbia, CA (51.012, -118.172)",
        "obsDt": "2024-05-09 10:33",
        "howMany": 1,
        "lat": 51.0124075,
        "lng": -118.1718039,
        "obsValid": true,
        "obsReviewed": false,
        "locationPrivate": true,
        "subId": "S173045638"
    },
    {
        "speciesCode": "comgal1",
        "comName": "Common Gallinule",
        "sciName": "Gallinula galeata",
        "locId": "L2217792",
        "locName": "Cimetière de Laval/Mt. Pleasant",
        "obsDt": "2024-05-09 10:29",
        "howMany": 1,
        "lat": 45.6434272,
        "lng": -73.659186,
        "obsValid": true,
        "obsReviewed": false,
        "locationPrivate": false,
        "subId": "S173028378"
    },
    {
        "speciesCode": "harspa",
        "comName": "Harris's Sparrow",
        "sciName": "Zonotrichia querula",
        "locId": "L27158168",
        "locName": "Watton Acreage",
        "obsDt": "2024-05-09 10:29",
        "howMany": 3,
        "lat": 50.9910949,
        "lng": -104.2622501,
        "obsValid": true,
        "obsReviewed": false,
        "locationPrivate": true,
        "subId": "S173031359"
    },
    {
        "speciesCode": "weskin",
        "comName": "Western Kingbird",
        "sciName": "Tyrannus verticalis",
        "locId": "L27158168",
        "locName": "Watton Acreage",
        "obsDt": "2024-05-09 10:29",
        "howMany": 2,
        "lat": 50.9910949,
        "lng": -104.2622501,
        "obsValid": true,
        "obsReviewed": false,
        "locationPrivate": true,
        "subId": "S173031359"
    },
    {
        "speciesCode": "blkoys",
        "comName": "Black Oystercatcher",
        "sciName": "Haematopus bachmani",
        "locId": "L384247",
        "locName": "Little Qualicum estuary",
        "obsDt": "2024-05-09 10:28",
        "howMany": 2,
        "lat": 49.3665013,
        "lng": -124.4922638,
        "obsValid": true,
        "obsReviewed": false,
        "locationPrivate": false,
        "subId": "S173044538"
    },
    {
        "speciesCode": "uplsan",
        "comName": "Upland Sandpiper",
        "sciName": "Bartramia longicauda",
        "locId": "L31478769",
        "locName": "Township Road 150, Ralston, Alberta, CA (50.223, -110.988)",
        "obsDt": "2024-05-09 10:26",
        "howMany": 2,
        "lat": 50.2226995,
        "lng": -110.9883415,
        "obsValid": true,
        "obsReviewed": false,
        "locationPrivate": true,
        "subId": "S173045750"
    },
    {
        "speciesCode": "canwar",
        "comName": "Canada Warbler",
        "sciName": "Cardellina canadensis",
        "locId": "L31337704",
        "locName": "468 Red Bay Rd, South Bruce Peninsula CA-ON 44.79650, -81.25719",
        "obsDt": "2024-05-09 10:25",
        "howMany": 1,
        "lat": 44.796503,
        "lng": -81.257195,
        "obsValid": true,
        "obsReviewed": false,
        "locationPrivate": true,
        "subId": "S173006054"
    },
    {
        "speciesCode": "chbchi",
        "comName": "Chestnut-backed Chickadee",
        "sciName": "Poecile rufescens",
        "locId": "L31478758",
        "locName": "Surrey Nature Centre",
        "obsDt": "2024-05-09 10:23",
        "howMany": 2,
        "lat": 49.178134,
        "lng": -122.829357,
        "obsValid": true,
        "obsReviewed": false,
        "locationPrivate": true,
        "subId": "S173045705"
    },
    {
        "speciesCode": "bushti",
        "comName": "Bushtit",
        "sciName": "Psaltriparus minimus",
        "locId": "L31478758",
        "locName": "Surrey Nature Centre",
        "obsDt": "2024-05-09 10:23",
        "howMany": 2,
        "lat": 49.178134,
        "lng": -122.829357,
        "obsValid": true,
        "obsReviewed": false,
        "locationPrivate": true,
        "subId": "S173045705"
    },
    {
        "speciesCode": "spotow",
        "comName": "Spotted Towhee",
        "sciName": "Pipilo maculatus",
        "locId": "L31478758",
        "locName": "Surrey Nature Centre",
        "obsDt": "2024-05-09 10:23",
        "howMany": 3,
        "lat": 49.178134,
        "lng": -122.829357,
        "obsValid": true,
        "obsReviewed": false,
        "locationPrivate": true,
        "subId": "S173045705"
    },
    {
        "speciesCode": "bkhgro",
        "comName": "Black-headed Grosbeak",
        "sciName": "Pheucticus melanocephalus",
        "locId": "L31478758",
        "locName": "Surrey Nature Centre",
        "obsDt": "2024-05-09 10:23",
        "howMany": 1,
        "lat": 49.178134,
        "lng": -122.829357,
        "obsValid": true,
        "obsReviewed": false,
        "locationPrivate": true,
        "subId": "S173045705"
    },
    {
        "speciesCode": "btywar",
        "comName": "Black-throated Gray Warbler",
        "sciName": "Setophaga nigrescens",
        "locId": "L31478758",
        "locName": "Surrey Nature Centre",
        "obsDt": "2024-05-09 10:23",
        "howMany": 1,
        "lat": 49.178134,
        "lng": -122.829357,
        "obsValid": true,
        "obsReviewed": false,
        "locationPrivate": true,
        "subId": "S173045705"
    },
    {
        "speciesCode": "logshr",
        "comName": "Loggerhead Shrike",
        "sciName": "Lanius ludovicianus",
        "locId": "L31478765",
        "locName": "Township Road 150, Ralston, Alberta, CA (50.223, -111.039)",
        "obsDt": "2024-05-09 10:22",
        "howMany": 1,
        "lat": 50.2227118,
        "lng": -111.0390341,
        "obsValid": true,
        "obsReviewed": false,
        "locationPrivate": true,
        "subId": "S173045730"
    },
    {
        "speciesCode": "perfal",
        "comName": "Peregrine Falcon",
        "sciName": "Falco peregrinus",
        "locId": "L9031139",
        "locName": "Kitchener--Kaufman Lofts",
        "obsDt": "2024-05-09 10:22",
        "howMany": 1,
        "lat": 43.4527475,
        "lng": -80.4969871,
        "obsValid": true,
        "obsReviewed": false,
        "locationPrivate": true,
        "subId": "S173002389"
    },
    {
        "speciesCode": "chclon",
        "comName": "Chestnut-collared Longspur",
        "sciName": "Calcarius ornatus",
        "locId": "L31478765",
        "locName": "Township Road 150, Ralston, Alberta, CA (50.223, -111.039)",
        "obsDt": "2024-05-09 10:22",
        "howMany": 2,
        "lat": 50.2227118,
        "lng": -111.0390341,
        "obsValid": true,
        "obsReviewed": false,
        "locationPrivate": true,
        "subId": "S173045730"
    },
    {
        "speciesCode": "gycthr",
        "comName": "Gray-cheeked Thrush",
        "sciName": "Catharus minimus",
        "locId": "L500576",
        "locName": "Saskatoon--President Murray Park",
        "obsDt": "2024-05-09 10:20",
        "howMany": 2,
        "lat": 52.1244444,
        "lng": -106.6413889,
        "obsValid": true,
        "obsReviewed": false,
        "locationPrivate": false,
        "subId": "S173042388"
    },
    {
        "speciesCode": "grypar",
        "comName": "Gray Partridge",
        "sciName": "Perdix perdix",
        "locId": "L10162265",
        "locName": "Calgary--Arad Park",
        "obsDt": "2024-05-09 10:20",
        "howMany": 3,
        "lat": 51.1365819,
        "lng": -114.2232642,
        "obsValid": true,
        "obsReviewed": false,
        "locationPrivate": false,
        "subId": "S173038908",
        "exoticCategory": "N"
    },
    {
        "speciesCode": "lbbgul",
        "comName": "Lesser Black-backed Gull",
        "sciName": "Larus fuscus",
        "locId": "L3008228",
        "locName": "Barachois du Grand Pabos",
        "obsDt": "2024-05-09 10:12",
        "howMany": 1,
        "lat": 48.338334,
        "lng": -64.691126,
        "obsValid": true,
        "obsReviewed": false,
        "locationPrivate": false,
        "subId": "S173016301"
    },
    {
        "speciesCode": "wesfly",
        "comName": "Western Flycatcher",
        "sciName": "Empidonax difficilis",
        "locId": "L31477569",
        "locName": "3050 Harwood Rd, Comox Valley CA-BC 49.54974, -124.67335",
        "obsDt": "2024-05-09 10:11",
        "howMany": 1,
        "lat": 49.549745,
        "lng": -124.673346,
        "obsValid": true,
        "obsReviewed": false,
        "locationPrivate": true,
        "subId": "S173040089"
    },
    {
        "speciesCode": "amgplo",
        "comName": "American Golden-Plover",
        "sciName": "Pluvialis dominica",
        "locId": "L1547411",
        "locName": "Lake St. Clair--Angler Line",
        "obsDt": "2024-05-09 10:09",
        "howMany": 3,
        "lat": 42.4517275,
        "lng": -82.4125638,
        "obsValid": true,
        "obsReviewed": false,
        "locationPrivate": false,
        "subId": "S173007962"
    },
    {
        "speciesCode": "wilfly",
        "comName": "Willow Flycatcher",
        "sciName": "Empidonax traillii",
        "locId": "L589852",
        "locName": "Bev's Back Yard",
        "obsDt": "2024-05-09 10:05",
        "howMany": 1,
        "lat": 42.9678228,
        "lng": -79.5538473,
        "obsValid": true,
        "obsReviewed": false,
        "locationPrivate": true,
        "subId": "S173022647"
    },
    {
        "speciesCode": "batpig1",
        "comName": "Band-tailed Pigeon",
        "sciName": "Patagioenas fasciata",
        "locId": "L31477033",
        "locName": "6402 Riverstone Dr, Sooke CA-BC 48.39895, -123.71587",
        "obsDt": "2024-05-09 10:05",
        "howMany": 1,
        "lat": 48.398953,
        "lng": -123.715873,
        "obsValid": true,
        "obsReviewed": false,
        "locationPrivate": true,
        "subId": "S173037272"
    },
    {
        "speciesCode": "pecsan",
        "comName": "Pectoral Sandpiper",
        "sciName": "Calidris melanotos",
        "locId": "L18338768",
        "locName": "Settlers Road Flooded Fields",
        "obsDt": "2024-05-09 10:04",
        "howMany": 4,
        "lat": 44.3323812,
        "lng": -78.6513204,
        "obsValid": true,
        "obsReviewed": false,
        "locationPrivate": false,
        "subId": "S173010873"
    },
    {
        "speciesCode": "eucdov",
        "comName": "Eurasian Collared-Dove",
        "sciName": "Streptopelia decaocto",
        "locId": "L4466037",
        "locName": "Beiseker (village)",
        "obsDt": "2024-05-09 10:04",
        "howMany": 2,
        "lat": 51.385031,
        "lng": -113.5352432,
        "obsValid": true,
        "obsReviewed": false,
        "locationPrivate": false,
        "subId": "S173042008",
        "exoticCategory": "N"
    },
    {
        "speciesCode": "bewwre",
        "comName": "Bewick's Wren",
        "sciName": "Thryomanes bewickii",
        "locId": "L15870498",
        "locName": "*Garden",
        "obsDt": "2024-05-09 10:00",
        "howMany": 1,
        "lat": 48.4538461,
        "lng": -123.4187644,
        "obsValid": true,
        "obsReviewed": false,
        "locationPrivate": true,
        "subId": "S173040281"
    },
    {
        "speciesCode": "annhum",
        "comName": "Anna's Hummingbird",
        "sciName": "Calypte anna",
        "locId": "L30197970",
        "locName": "Grandmas",
        "obsDt": "2024-05-09 09:56",
        "howMany": 1,
        "lat": 49.494838,
        "lng": -124.72915,
        "obsValid": true,
        "obsReviewed": false,
        "locationPrivate": true,
        "subId": "S173037326"
    },
    {
        "speciesCode": "glwgul",
        "comName": "Glaucous-winged Gull",
        "sciName": "Larus glaucescens",
        "locId": "L4111261",
        "locName": "Cowichan Bay--nature centre viewpoint",
        "obsDt": "2024-05-09 09:55",
        "howMany": 1,
        "lat": 48.7432149,
        "lng": -123.6299041,
        "obsValid": true,
        "obsReviewed": false,
        "locationPrivate": false,
        "subId": "S173043653"
    },
    {
        "speciesCode": "sedwre1",
        "comName": "Sedge Wren",
        "sciName": "Cistothorus stellaris",
        "locId": "L24721018",
        "locName": "Riding Mountain NP--Ominnik Marsh Trail",
        "obsDt": "2024-05-09 09:53",
        "howMany": 3,
        "lat": 50.6542222,
        "lng": -99.9751997,
        "obsValid": true,
        "obsReviewed": false,
        "locationPrivate": false,
        "subId": "S173040207"
    },
    {
        "speciesCode": "laplon",
        "comName": "Lapland Longspur",
        "sciName": "Calcarius lapponicus",
        "locId": "L2530758",
        "locName": "Pointe à Émile",
        "obsDt": "2024-05-09 09:50",
        "howMany": 1,
        "lat": 48.574002,
        "lng": -69.201303,
        "obsValid": true,
        "obsReviewed": false,
        "locationPrivate": false,
        "subId": "S173011777"
    },
    {
        "speciesCode": "macwar",
        "comName": "MacGillivray's Warbler",
        "sciName": "Geothlypis tolmiei",
        "locId": "L351648",
        "locName": "Goldstream Provincial Park",
        "obsDt": "2024-05-09 09:48",
        "howMany": 1,
        "lat": 48.4840447,
        "lng": -123.5483623,
        "obsValid": true,
        "obsReviewed": false,
        "locationPrivate": false,
        "subId": "S173048575"
    },
    {
        "speciesCode": "rufhum",
        "comName": "Rufous Hummingbird",
        "sciName": "Selasphorus rufus",
        "locId": "L351648",
        "locName": "Goldstream Provincial Park",
        "obsDt": "2024-05-09 09:48",
        "howMany": 1,
        "lat": 48.4840447,
        "lng": -123.5483623,
        "obsValid": true,
        "obsReviewed": false,
        "locationPrivate": false,
        "subId": "S173048575"
    },
    {
        "speciesCode": "hutvir",
        "comName": "Hutton's Vireo",
        "sciName": "Vireo huttoni",
        "locId": "L11245706",
        "locName": "Green Timbers Urban Forest, Surrey CA-BC 49.18345, -122.82015",
        "obsDt": "2024-05-09 09:47",
        "howMany": 2,
        "lat": 49.183449,
        "lng": -122.82015,
        "obsValid": true,
        "obsReviewed": false,
        "locationPrivate": true,
        "subId": "S173033640"
    },
    {
        "speciesCode": "rensap",
        "comName": "Red-naped Sapsucker",
        "sciName": "Sphyrapicus nuchalis",
        "locId": "L2170068",
        "locName": "Fairmont--meadows",
        "obsDt": "2024-05-09 09:47",
        "howMany": 1,
        "lat": 50.3428312,
        "lng": -115.8693695,
        "obsValid": true,
        "obsReviewed": false,
        "locationPrivate": false,
        "subId": "S173036648"
    },
    {
        "speciesCode": "bkbcuc",
        "comName": "Black-billed Cuckoo",
        "sciName": "Coccyzus erythropthalmus",
        "locId": "L1897864",
        "locName": "Cambridge--Walter Bean trail",
        "obsDt": "2024-05-09 09:43",
        "howMany": 1,
        "lat": 43.3776277,
        "lng": -80.3410673,
        "obsValid": true,
        "obsReviewed": false,
        "locationPrivate": false,
        "subId": "S173001802"
    },
    {
        "speciesCode": "calqua",
        "comName": "California Quail",
        "sciName": "Callipepla californica",
        "locId": "L351647",
        "locName": "Francis/King Regional Park, Saanich",
        "obsDt": "2024-05-09 09:41",
        "howMany": 1,
        "lat": 48.485026,
        "lng": -123.4450865,
        "obsValid": true,
        "obsReviewed": false,
        "locationPrivate": false,
        "subId": "S173044723",
        "exoticCategory": "N"
    },
    {
        "speciesCode": "westan",
        "comName": "Western Tanager",
        "sciName": "Piranga ludoviciana",
        "locId": "L31026725",
        "locName": "Meadow Woods",
        "obsDt": "2024-05-09 09:38",
        "howMany": 1,
        "lat": 48.4057668,
        "lng": -123.509312,
        "obsValid": true,
        "obsReviewed": false,
        "locationPrivate": true,
        "subId": "S173040463"
    },
    {
        "speciesCode": "pacwre1",
        "comName": "Pacific Wren",
        "sciName": "Troglodytes pacificus",
        "locId": "L31026725",
        "locName": "Meadow Woods",
        "obsDt": "2024-05-09 09:38",
        "howMany": 2,
        "lat": 48.4057668,
        "lng": -123.509312,
        "obsValid": true,
        "obsReviewed": false,
        "locationPrivate": true,
        "subId": "S173040463"
    },
    {
        "speciesCode": "olsfly",
        "comName": "Olive-sided Flycatcher",
        "sciName": "Contopus cooperi",
        "locId": "L31026725",
        "locName": "Meadow Woods",
        "obsDt": "2024-05-09 09:38",
        "howMany": 1,
        "lat": 48.4057668,
        "lng": -123.509312,
        "obsValid": true,
        "obsReviewed": false,
        "locationPrivate": true,
        "subId": "S173040463"
    },
    {
        "speciesCode": "larspa",
        "comName": "Lark Sparrow",
        "sciName": "Chondestes grammacus",
        "locId": "L969956",
        "locName": "Vic's Yard",
        "obsDt": "2024-05-09 09:37",
        "howMany": 1,
        "lat": 49.6300884,
        "lng": -96.6631758,
        "obsValid": true,
        "obsReviewed": false,
        "locationPrivate": true,
        "subId": "S173016181"
    },
    {
        "speciesCode": "rudtur",
        "comName": "Ruddy Turnstone",
        "sciName": "Arenaria interpres",
        "locId": "L283720",
        "locName": "Hillman Marsh CA (general location)",
        "obsDt": "2024-05-09 09:36",
        "howMany": 20,
        "lat": 42.0389667,
        "lng": -82.5091267,
        "obsValid": true,
        "obsReviewed": false,
        "locationPrivate": false,
        "subId": "S173019956"
    },
    {
        "speciesCode": "varthr",
        "comName": "Varied Thrush",
        "sciName": "Ixoreus naevius",
        "locId": "L31475910",
        "locName": "1242 Bluff Dr, Coquitlam CA-BC 49.29057, -122.76500",
        "obsDt": "2024-05-09 09:32",
        "howMany": 1,
        "lat": 49.290574,
        "lng": -122.764999,
        "obsValid": true,
        "obsReviewed": false,
        "locationPrivate": true,
        "subId": "S173031905"
    },
    {
        "speciesCode": "gocspa",
        "comName": "Golden-crowned Sparrow",
        "sciName": "Zonotrichia atricapilla",
        "locId": "L367691",
        "locName": "Elgin Heritage Park, South Surrey",
        "obsDt": "2024-05-09 09:32",
        "howMany": 2,
        "lat": 49.0645877,
        "lng": -122.8478336,
        "obsValid": true,
        "obsReviewed": false,
        "locationPrivate": false,
        "subId": "S173042005"
    },
    {
        "speciesCode": "bracor",
        "comName": "Brandt's Cormorant",
        "sciName": "Urile penicillatus",
        "locId": "L1193679",
        "locName": "Tofino",
        "obsDt": "2024-05-09 09:31",
        "howMany": 1,
        "lat": 49.1527863,
        "lng": -125.9046078,
        "obsValid": true,
        "obsReviewed": false,
        "locationPrivate": false,
        "subId": "S173033942"
    },
    {
        "speciesCode": "pelcor",
        "comName": "Pelagic Cormorant",
        "sciName": "Urile pelagicus",
        "locId": "L1193679",
        "locName": "Tofino",
        "obsDt": "2024-05-09 09:31",
        "howMany": 2,
        "lat": 49.1527863,
        "lng": -125.9046078,
        "obsValid": true,
        "obsReviewed": false,
        "locationPrivate": false,
        "subId": "S173033942"
    },
    {
        "speciesCode": "calgul",
        "comName": "California Gull",
        "sciName": "Larus californicus",
        "locId": "L16868182",
        "locName": "Edmonton--(Private Property) Benevolence Care Center/Villa Marguerite Seniors Community/The Vanier",
        "obsDt": "2024-05-09 09:28",
        "howMany": 1,
        "lat": 53.5365062,
        "lng": -113.6076861,
        "obsValid": true,
        "obsReviewed": false,
        "locationPrivate": true,
        "subId": "S173019426"
    },
    {
        "speciesCode": "comred",
        "comName": "Common Redpoll",
        "sciName": "Acanthis flammea",
        "locId": "L5464246",
        "locName": "NL--Portland Creek",
        "obsDt": "2024-05-09 09:27",
        "howMany": 15,
        "lat": 50.1646792,
        "lng": -57.6156425,
        "obsValid": true,
        "obsReviewed": false,
        "locationPrivate": false,
        "subId": "S172969358"
    },
    {
        "speciesCode": "saypho",
        "comName": "Say's Phoebe",
        "sciName": "Sayornis saya",
        "locId": "L1550553",
        "locName": "Calgary--North Glenmore Park",
        "obsDt": "2024-05-09 09:22",
        "howMany": 1,
        "lat": 50.9856366,
        "lng": -114.1212401,
        "obsValid": true,
        "obsReviewed": false,
        "locationPrivate": false,
        "subId": "S173029118"
    },
    {
        "speciesCode": "cintea",
        "comName": "Cinnamon Teal",
        "sciName": "Spatula cyanoptera",
        "locId": "L3567977",
        "locName": "Golden--Edelweiss Slough",
        "obsDt": "2024-05-09 09:22",
        "howMany": 1,
        "lat": 51.3217451,
        "lng": -116.9791689,
        "obsValid": true,
        "obsReviewed": false,
        "locationPrivate": false,
        "subId": "S173025578"
    },
    {
        "speciesCode": "towsol",
        "comName": "Townsend's Solitaire",
        "sciName": "Myadestes townsendi",
        "locId": "L22398109",
        "locName": "Strathmore--Pathways East",
        "obsDt": "2024-05-09 09:21",
        "howMany": 1,
        "lat": 51.0552163,
        "lng": -113.3825839,
        "obsValid": true,
        "obsReviewed": false,
        "locationPrivate": true,
        "subId": "S173022943"
    },
    {
        "speciesCode": "wesblu",
        "comName": "Western Bluebird",
        "sciName": "Sialia mexicana",
        "locId": "L11644412",
        "locName": "Lake Country--Beaver Lake Road--KM 1-5",
        "obsDt": "2024-05-09 09:18",
        "howMany": 4,
        "lat": 50.026266,
        "lng": -119.3602655,
        "obsValid": true,
        "obsReviewed": false,
        "locationPrivate": false,
        "subId": "S173045502"
    },
    {
        "speciesCode": "casfin",
        "comName": "Cassin's Finch",
        "sciName": "Haemorhous cassinii",
        "locId": "L11644412",
        "locName": "Lake Country--Beaver Lake Road--KM 1-5",
        "obsDt": "2024-05-09 09:18",
        "howMany": 1,
        "lat": 50.026266,
        "lng": -119.3602655,
        "obsValid": true,
        "obsReviewed": false,
        "locationPrivate": false,
        "subId": "S173045502"
    },
    {
        "speciesCode": "glagul",
        "comName": "Glaucous Gull",
        "sciName": "Larus hyperboreus",
        "locId": "L1353114",
        "locName": "PN du Bic--Belvédère Raoul-Roy",
        "obsDt": "2024-05-09 09:18",
        "howMany": 2,
        "lat": 48.3111758,
        "lng": -68.8687869,
        "obsValid": true,
        "obsReviewed": false,
        "locationPrivate": false,
        "subId": "S172995755"
    },
    {
        "speciesCode": "wewpew",
        "comName": "Western Wood-Pewee",
        "sciName": "Contopus sordidulus",
        "locId": "L2863956",
        "locName": "Pender Island - Gardom Pond Park",
        "obsDt": "2024-05-09 09:14",
        "howMany": 1,
        "lat": 48.7760849,
        "lng": -123.2528043,
        "obsValid": true,
        "obsReviewed": false,
        "locationPrivate": false,
        "subId": "S173029109"
    },
    {
        "speciesCode": "rolhaw",
        "comName": "Rough-legged Hawk",
        "sciName": "Buteo lagopus",
        "locId": "L31471554",
        "locName": "Cape merry road",
        "obsDt": "2024-05-09 09:14",
        "howMany": 1,
        "lat": 58.779122,
        "lng": -94.187105,
        "obsValid": true,
        "obsReviewed": false,
        "locationPrivate": true,
        "subId": "S173010708"
    },
    {
        "speciesCode": "wesgre",
        "comName": "Western Grebe",
        "sciName": "Aechmophorus occidentalis",
        "locId": "L902958",
        "locName": "Friends of Columbia Wetland (Richies Point)",
        "obsDt": "2024-05-09 09:08",
        "howMany": 2,
        "lat": 50.5584877,
        "lng": -116.0628319,
        "obsValid": true,
        "obsReviewed": false,
        "locationPrivate": false,
        "subId": "S173036970"
    },
    {
        "speciesCode": "fiscro",
        "comName": "Fish Crow",
        "sciName": "Corvus ossifragus",
        "locId": "L164584",
        "locName": "Burlington--Shoreacres/Paletta Park",
        "obsDt": "2024-05-09 09:00",
        "howMany": 1,
        "lat": 43.3530817,
        "lng": -79.7519875,
        "obsValid": true,
        "obsReviewed": false,
        "locationPrivate": false,
        "subId": "S173003055"
    },
    {
        "speciesCode": "tufduc",
        "comName": "Tufted Duck",
        "sciName": "Aythya fuligula",
        "locId": "L453271",
        "locName": "St. John's--Mundy Pond",
        "obsDt": "2024-05-09 09:00",
        "howMany": 1,
        "lat": 47.552491,
        "lng": -52.7386665,
        "obsValid": true,
        "obsReviewed": false,
        "locationPrivate": false,
        "subId": "S172965821"
    },
    {
        "speciesCode": "x00004",
        "comName": "Mallard x American Black Duck (hybrid)",
        "sciName": "Anas platyrhynchos x rubripes",
        "locId": "L453271",
        "locName": "St. John's--Mundy Pond",
        "obsDt": "2024-05-09 09:00",
        "howMany": 4,
        "lat": 47.552491,
        "lng": -52.7386665,
        "obsValid": true,
        "obsReviewed": false,
        "locationPrivate": false,
        "subId": "S172965821"
    },
    {
        "speciesCode": "gryjay",
        "comName": "Canada Jay",
        "sciName": "Perisoreus canadensis",
        "locId": "L9140638",
        "locName": "West Bragg Creek, Rng Rd 54",
        "obsDt": "2024-05-09 08:59",
        "howMany": 3,
        "lat": 50.9407935,
        "lng": -114.6530124,
        "obsValid": true,
        "obsReviewed": false,
        "locationPrivate": true,
        "subId": "S173037498"
    },
    {
        "speciesCode": "bkbwoo",
        "comName": "Black-backed Woodpecker",
        "sciName": "Picoides arcticus",
        "locId": "L27311072",
        "locName": "W Branch Rd, Sables-Spanish Rivers CA-ON 46.31736, -81.90146",
        "obsDt": "2024-05-09 08:58",
        "howMany": 1,
        "lat": 46.317364,
        "lng": -81.901456,
        "obsValid": true,
        "obsReviewed": false,
        "locationPrivate": true,
        "subId": "S173037615"
    },
    {
        "speciesCode": "vauswi",
        "comName": "Vaux's Swift",
        "sciName": "Chaetura vauxi",
        "locId": "L31473676",
        "locName": "2110 Columbia Ave, Rossland CA-BC 49.07710, -117.79829",
        "obsDt": "2024-05-09 08:53",
        "howMany": 2,
        "lat": 49.077105,
        "lng": -117.798294,
        "obsValid": true,
        "obsReviewed": false,
        "locationPrivate": true,
        "subId": "S173021084"
    },